pubid,preferred,year,date,title,name,name_1,type,research_orgs,times_cited,recent_citations,score,country,state,city,latitude,longitude,country_code,state_code
pub.1125686004,The proximal origin of SARS-CoV-2,2020,2020-03-17,Nature Medicine,Columbia University,Springer Nature,article,"[grid.505518.c,grid.21729.3f,grid.265219.b,grid.214007.0,grid.1013.3,grid.4305.2]",2716,2710,36466,United States,New York,New York,40.807598114013672,-73.962387084960938,US,US-NY
pub.1125686004,The proximal origin of SARS-CoV-2,2020,2020-03-17,Nature Medicine,Scripps Research Institute,Springer Nature,article,"[grid.505518.c,grid.21729.3f,grid.265219.b,grid.214007.0,grid.1013.3,grid.4305.2]",2716,2710,36466,United States,California,San Diego,32.896213531494141,-117.24085998535156,US,US-CA
pub.1125686004,The proximal origin of SARS-CoV-2,2020,2020-03-17,Nature Medicine,University of Edinburgh,Springer Nature,article,"[grid.505518.c,grid.21729.3f,grid.265219.b,grid.214007.0,grid.1013.3,grid.4305.2]",2716,2710,36466,United Kingdom,,Edinburgh,55.944896697998047,-3.189284086227417,GB,
pub.1125686004,The proximal origin of SARS-CoV-2,2020,2020-03-17,Nature Medicine,Zalgen (United States),Springer Nature,article,"[grid.505518.c,grid.21729.3f,grid.265219.b,grid.214007.0,grid.1013.3,grid.4305.2]",2716,2710,36466,United States,Maryland,Germantown,39.187908172607422,-77.250335693359375,US,US-MD
pub.1125686004,The proximal origin of SARS-CoV-2,2020,2020-03-17,Nature Medicine,University of Sydney,Springer Nature,article,"[grid.505518.c,grid.21729.3f,grid.265219.b,grid.214007.0,grid.1013.3,grid.4305.2]",2716,2710,36466,Australia,New South Wales,Sydney,-33.888580322265625,151.18730163574219,AU,AU-NSW
pub.1125686004,The proximal origin of SARS-CoV-2,2020,2020-03-17,Nature Medicine,Tulane University,Springer Nature,article,"[grid.505518.c,grid.21729.3f,grid.265219.b,grid.214007.0,grid.1013.3,grid.4305.2]",2716,2710,36466,United States,Louisiana,New Orleans,29.939493179321289,-90.122276306152344,US,US-LA
pub.1140641988,Comparing SARS-CoV-2 natural immunity to vaccine-induced immunity: reinfections versus breakthrough infections,2021,2021-08-25,medRxiv,Tel Aviv University,Cold Spring Harbor Laboratory,preprint,"[grid.12136.37,grid.425380.8]",56,56,34575,Israel,,Tel Aviv,32.113388061523438,34.802154541015625,IL,
pub.1140641988,Comparing SARS-CoV-2 natural immunity to vaccine-induced immunity: reinfections versus breakthrough infections,2021,2021-08-25,medRxiv,Maccabi Institute for Health Services Research,Cold Spring Harbor Laboratory,preprint,"[grid.12136.37,grid.425380.8]",56,56,34575,Israel,,Tel Aviv,32.08001708984375,34.791061401367188,IL,
pub.1132688603,Effectiveness of Adding a Mask Recommendation to Other Public Health Measures to Prevent SARS-CoV-2 Infection in Danish Mask Wearers,2020,2020-11-18,ACP Journal Club,Rigshospitalet,American College of Physicians,article,"[grid.414092.a,grid.6203.7,grid.4973.9,grid.475435.4,grid.5170.3]",133,133,30548,Denmark,,Copenhagen,55.696079254150391,12.566587448120117,DK,
pub.1132688603,Effectiveness of Adding a Mask Recommendation to Other Public Health Measures to Prevent SARS-CoV-2 Infection in Danish Mask Wearers,2020,2020-11-18,ACP Journal Club,Copenhagen University Hospital,American College of Physicians,article,"[grid.414092.a,grid.6203.7,grid.4973.9,grid.475435.4,grid.5170.3]",133,133,30548,Denmark,,Copenhagen,55.697971343994141,12.565690994262695,DK,
pub.1132688603,Effectiveness of Adding a Mask Recommendation to Other Public Health Measures to Prevent SARS-CoV-2 Infection in Danish Mask Wearers,2020,2020-11-18,ACP Journal Club,Statens Serum Institut,American College of Physicians,article,"[grid.414092.a,grid.6203.7,grid.4973.9,grid.475435.4,grid.5170.3]",133,133,30548,Denmark,Hovedstaden,Copenhagen,55.666000366210938,12.590999603271484,DK,DK-84
pub.1132688603,Effectiveness of Adding a Mask Recommendation to Other Public Health Measures to Prevent SARS-CoV-2 Infection in Danish Mask Wearers,2020,2020-11-18,ACP Journal Club,Technical University of Denmark,American College of Physicians,article,"[grid.414092.a,grid.6203.7,grid.4973.9,grid.475435.4,grid.5170.3]",133,133,30548,Denmark,Hovedstaden,Kongens Lyngby,55.785797119140625,12.521533012390137,DK,DK-84
pub.1132688603,Effectiveness of Adding a Mask Recommendation to Other Public Health Measures to Prevent SARS-CoV-2 Infection in Danish Mask Wearers,2020,2020-11-18,ACP Journal Club,Nordsjællands Hospital,American College of Physicians,article,"[grid.414092.a,grid.6203.7,grid.4973.9,grid.475435.4,grid.5170.3]",133,133,30548,Denmark,,Hillerød,55.930839538574219,12.32647705078125,DK,
pub.1139010213,"Ivermectin for Prevention and Treatment of COVID-19 Infection: A Systematic Review, Meta-analysis, and Trial Sequential Analysis to Inform Clinical Guidelines",2021,2021-06-21,American Journal of Therapeutics,Newcastle University,Wolters Kluwer,article,"[grid.1006.7,grid.416994.7]",54,54,30332,United Kingdom,,Newcastle upon Tyne,54.978000640869141,-1.6150000095367432,GB,
pub.1139010213,"Ivermectin for Prevention and Treatment of COVID-19 Infection: A Systematic Review, Meta-analysis, and Trial Sequential Analysis to Inform Clinical Guidelines",2021,2021-06-21,American Journal of Therapeutics,Ulster Hospital,Wolters Kluwer,article,"[grid.1006.7,grid.416994.7]",54,54,30332,United Kingdom,,Dundonald,54.597011566162109,-5.8115139007568359,GB,
pub.1135061524,Safety and efficacy of an rAd26 and rAd5 vector-based heterologous prime-boost COVID-19 vaccine: an interim analysis of a randomised controlled phase 3 trial in Russia,2021,2021-02-02,The Lancet,Sechenov University,Elsevier,article,"[grid.77642.30,grid.494808.9,grid.415738.c,grid.448878.f]",623,623,28347,Russia,,Moscow,55.728057861328125,37.575000762939453,RU,
pub.1135061524,Safety and efficacy of an rAd26 and rAd5 vector-based heterologous prime-boost COVID-19 vaccine: an interim analysis of a randomised controlled phase 3 trial in Russia,2021,2021-02-02,The Lancet,Ministry of Health,Elsevier,article,"[grid.77642.30,grid.494808.9,grid.415738.c,grid.448878.f]",623,623,28347,Russia,,Moscow,55.765262603759766,37.618602752685547,RU,
pub.1135061524,Safety and efficacy of an rAd26 and rAd5 vector-based heterologous prime-boost COVID-19 vaccine: an interim analysis of a randomised controlled phase 3 trial in Russia,2021,2021-02-02,The Lancet,Peoples' Friendship University of Russia,Elsevier,article,"[grid.77642.30,grid.494808.9,grid.415738.c,grid.448878.f]",623,623,28347,Russia,,Moscow,55.650699615478516,37.5019416809082,RU,
pub.1135061524,Safety and efficacy of an rAd26 and rAd5 vector-based heterologous prime-boost COVID-19 vaccine: an interim analysis of a randomised controlled phase 3 trial in Russia,2021,2021-02-02,The Lancet,Ministry of Defence of the Russian Federation,Elsevier,article,"[grid.77642.30,grid.494808.9,grid.415738.c,grid.448878.f]",623,623,28347,Russia,,Moscow,55.750144958496094,37.6024055480957,RU,
pub.1142678035,COVID-19: stigmatising the unvaccinated is not justified,2021,2021-11-18,The Lancet,University of Greifswald,Elsevier,article,[grid.5603.0],0,0,26978,Germany,,Greifswald,54.094638824462891,13.374625205993652,DE,
pub.1133379610,Safety and Efficacy of the BNT162b2 mRNA Covid-19 Vaccine,2020,2020-12-10,New England Journal of Medicine,Pfizer (United States),Massachusetts Medical Society,article,[grid.410513.2],4772,4771,26443,United States,New York,New York,40.750362396240234,-73.972541809082031,US,US-NY
pub.1141511087,Increases in COVID-19 are unrelated to levels of vaccination across 68 countries and 2947 counties in the United States,2021,2021-09-30,European Journal of Epidemiology,Harvard University,Springer Nature,article,[grid.38142.3c],15,15,26226,United States,Massachusetts,Cambridge,42.377052307128906,-71.116653442382812,US,US-MA
pub.1125718014,Aerosol and Surface Stability of SARS-CoV-2 as Compared with SARS-CoV-1,2020,2020-03-17,New England Journal of Medicine,National Institute of Allergy and Infectious Diseases,Massachusetts Medical Society,article,"[grid.419681.3,grid.19006.3e,grid.16750.35,grid.416738.f]",5286,5282,25499,United States,Maryland,Bethesda,39.066646575927734,-77.111831665039062,US,US-MD
pub.1125718014,Aerosol and Surface Stability of SARS-CoV-2 as Compared with SARS-CoV-1,2020,2020-03-17,New England Journal of Medicine,Princeton University,Massachusetts Medical Society,article,"[grid.419681.3,grid.19006.3e,grid.16750.35,grid.416738.f]",5286,5282,25499,United States,New Jersey,Princeton,40.344234466552734,-74.6514663696289,US,US-NJ
pub.1125718014,Aerosol and Surface Stability of SARS-CoV-2 as Compared with SARS-CoV-1,2020,2020-03-17,New England Journal of Medicine,Centers for Disease Control and Prevention,Massachusetts Medical Society,article,"[grid.419681.3,grid.19006.3e,grid.16750.35,grid.416738.f]",5286,5282,25499,United States,Georgia,Atlanta,33.7988166809082,-84.325599670410156,US,US-GA
pub.1125718014,Aerosol and Surface Stability of SARS-CoV-2 as Compared with SARS-CoV-1,2020,2020-03-17,New England Journal of Medicine,"University of California, Los Angeles",Massachusetts Medical Society,article,"[grid.419681.3,grid.19006.3e,grid.16750.35,grid.416738.f]",5286,5282,25499,United States,California,Los Angeles,34.072223663330078,-118.44409942626953,US,US-CA
pub.1128115677,"Physical distancing, face masks, and eye protection to prevent person-to-person transmission of SARS-CoV-2 and COVID-19: a systematic review and meta-analysis",2020,2020-06-01,The Lancet,McMaster University,Elsevier,article,"[grid.25073.33,grid.22903.3a]",1910,1910,24526,Canada,Ontario,Hamilton,43.263332366943359,-79.918891906738281,CA,CA-ON
pub.1128115677,"Physical distancing, face masks, and eye protection to prevent person-to-person transmission of SARS-CoV-2 and COVID-19: a systematic review and meta-analysis",2020,2020-06-01,The Lancet,American University of Beirut,Elsevier,article,"[grid.25073.33,grid.22903.3a]",1910,1910,24526,Lebanon,,Beirut,33.901092529296875,35.481529235839844,LB,
pub.1132770156,"Post-lockdown SARS-CoV-2 nucleic acid screening in nearly ten million residents of Wuhan, China",2020,2020-11-20,Nature Communications,Huazhong University of Science and Technology,Springer Nature,article,"[grid.1018.8,grid.508241.a,grid.33199.31,grid.411864.e,grid.207374.5,grid.412793.a,grid.8273.e,grid.1008.9,grid.443397.e]",87,87,23397,China,,Wuhan,30.508182525634766,114.41474151611328,CN,
pub.1132770156,"Post-lockdown SARS-CoV-2 nucleic acid screening in nearly ten million residents of Wuhan, China",2020,2020-11-20,Nature Communications,La Trobe University,Springer Nature,article,"[grid.1018.8,grid.508241.a,grid.33199.31,grid.411864.e,grid.207374.5,grid.412793.a,grid.8273.e,grid.1008.9,grid.443397.e]",87,87,23397,Australia,Victoria,Melbourne,-37.7217903137207,145.04791259765625,AU,AU-VIC
pub.1132770156,"Post-lockdown SARS-CoV-2 nucleic acid screening in nearly ten million residents of Wuhan, China",2020,2020-11-20,Nature Communications,University of Melbourne,Springer Nature,article,"[grid.1018.8,grid.508241.a,grid.33199.31,grid.411864.e,grid.207374.5,grid.412793.a,grid.8273.e,grid.1008.9,grid.443397.e]",87,87,23397,Australia,Victoria,Melbourne,-37.797115325927734,144.95997619628906,AU,AU-VIC
pub.1132770156,"Post-lockdown SARS-CoV-2 nucleic acid screening in nearly ten million residents of Wuhan, China",2020,2020-11-20,Nature Communications,Jiangxi Science and Technology Normal University,Springer Nature,article,"[grid.1018.8,grid.508241.a,grid.33199.31,grid.411864.e,grid.207374.5,grid.412793.a,grid.8273.e,grid.1008.9,grid.443397.e]",87,87,23397,China,,Nanchang,28.664638519287109,115.82196807861328,CN,
pub.1132770156,"Post-lockdown SARS-CoV-2 nucleic acid screening in nearly ten million residents of Wuhan, China",2020,2020-11-20,Nature Communications,Zhengzhou University,Springer Nature,article,"[grid.1018.8,grid.508241.a,grid.33199.31,grid.411864.e,grid.207374.5,grid.412793.a,grid.8273.e,grid.1008.9,grid.443397.e]",87,87,23397,China,,Zhengzhou,34.816024780273438,113.5357666015625,CN,
pub.1132770156,"Post-lockdown SARS-CoV-2 nucleic acid screening in nearly ten million residents of Wuhan, China",2020,2020-11-20,Nature Communications,Tongji Hospital,Springer Nature,article,"[grid.1018.8,grid.508241.a,grid.33199.31,grid.411864.e,grid.207374.5,grid.412793.a,grid.8273.e,grid.1008.9,grid.443397.e]",87,87,23397,China,,Wuhan,30.578750610351562,114.26175689697266,CN,
pub.1132770156,"Post-lockdown SARS-CoV-2 nucleic acid screening in nearly ten million residents of Wuhan, China",2020,2020-11-20,Nature Communications,Hainan Medical University,Springer Nature,article,"[grid.1018.8,grid.508241.a,grid.33199.31,grid.411864.e,grid.207374.5,grid.412793.a,grid.8273.e,grid.1008.9,grid.443397.e]",87,87,23397,China,,Haikou,19.981660842895508,110.33306121826172,CN,
pub.1132770156,"Post-lockdown SARS-CoV-2 nucleic acid screening in nearly ten million residents of Wuhan, China",2020,2020-11-20,Nature Communications,Wuhan Municipal Health Commission,Springer Nature,article,"[grid.1018.8,grid.508241.a,grid.33199.31,grid.411864.e,grid.207374.5,grid.412793.a,grid.8273.e,grid.1008.9,grid.443397.e]",87,87,23397,China,,Jiang’an Qu,30.588815689086914,114.27989196777344,CN,
pub.1132770156,"Post-lockdown SARS-CoV-2 nucleic acid screening in nearly ten million residents of Wuhan, China",2020,2020-11-20,Nature Communications,University of East Anglia,Springer Nature,article,"[grid.1018.8,grid.508241.a,grid.33199.31,grid.411864.e,grid.207374.5,grid.412793.a,grid.8273.e,grid.1008.9,grid.443397.e]",87,87,23397,United Kingdom,Norfolk,Norwich,52.621665954589844,1.2416670322418213,GB,GB-NFK
pub.1142695987,The epidemiological relevance of the COVID-19-vaccinated population is increasing,2021,2021-11-20,The Lancet Regional Health - Europe,University of Greifswald,Elsevier,article,[grid.5603.0],1,1,23367,Germany,,Greifswald,54.094638824462891,13.374625205993652,DE,
pub.1127834352,RETRACTED: Hydroxychloroquine or chloroquine with or without a macrolide for treatment of COVID-19: a multinational registry analysis,2020,2020-05-22,The Lancet,University Hospital of Zurich,Elsevier,article,"[grid.62560.37,grid.223827.e,grid.38142.3c,grid.414420.7,grid.412004.3]",670,670,22819,Switzerland,,Zurich,47.376667022705078,8.5497217178344727,CH,
pub.1127834352,RETRACTED: Hydroxychloroquine or chloroquine with or without a macrolide for treatment of COVID-19: a multinational registry analysis,2020,2020-05-22,The Lancet,Hospital Corporation of America,Elsevier,article,"[grid.62560.37,grid.223827.e,grid.38142.3c,grid.414420.7,grid.412004.3]",670,670,22819,United States,Tennessee,Nashville,36.153732299804688,-86.813774108886719,US,US-TN
pub.1127834352,RETRACTED: Hydroxychloroquine or chloroquine with or without a macrolide for treatment of COVID-19: a multinational registry analysis,2020,2020-05-22,The Lancet,Harvard University,Elsevier,article,"[grid.62560.37,grid.223827.e,grid.38142.3c,grid.414420.7,grid.412004.3]",670,670,22819,United States,Massachusetts,Cambridge,42.377052307128906,-71.116653442382812,US,US-MA
pub.1127834352,RETRACTED: Hydroxychloroquine or chloroquine with or without a macrolide for treatment of COVID-19: a multinational registry analysis,2020,2020-05-22,The Lancet,Brigham and Women's Hospital,Elsevier,article,"[grid.62560.37,grid.223827.e,grid.38142.3c,grid.414420.7,grid.412004.3]",670,670,22819,United States,Massachusetts,Boston,42.335601806640625,-71.106414794921875,US,US-MA
pub.1127834352,RETRACTED: Hydroxychloroquine or chloroquine with or without a macrolide for treatment of COVID-19: a multinational registry analysis,2020,2020-05-22,The Lancet,University of Utah,Elsevier,article,"[grid.62560.37,grid.223827.e,grid.38142.3c,grid.414420.7,grid.412004.3]",670,670,22819,United States,Utah,Salt Lake City,40.764961242675781,-111.84214782714844,US,US-UT
pub.1137233109,Ten scientific reasons in support of airborne transmission of SARS-CoV-2,2021,2021-04-15,The Lancet,University of North Carolina System,Elsevier,article,"[grid.4991.5,grid.266190.a,grid.410711.2,grid.17063.33,grid.266100.3]",225,225,21585,United States,North Carolina,Chapel Hill,35.904914855957031,-79.046920776367188,US,US-NC
pub.1137233109,Ten scientific reasons in support of airborne transmission of SARS-CoV-2,2021,2021-04-15,The Lancet,"University of California, San Diego",Elsevier,article,"[grid.4991.5,grid.266190.a,grid.410711.2,grid.17063.33,grid.266100.3]",225,225,21585,United States,California,San Diego,32.881000518798828,-117.23799896240234,US,US-CA
pub.1137233109,Ten scientific reasons in support of airborne transmission of SARS-CoV-2,2021,2021-04-15,The Lancet,University of Toronto,Elsevier,article,"[grid.4991.5,grid.266190.a,grid.410711.2,grid.17063.33,grid.266100.3]",225,225,21585,Canada,Ontario,Toronto,43.661666870117188,-79.3949966430664,CA,CA-ON
pub.1137233109,Ten scientific reasons in support of airborne transmission of SARS-CoV-2,2021,2021-04-15,The Lancet,University of Oxford,Elsevier,article,"[grid.4991.5,grid.266190.a,grid.410711.2,grid.17063.33,grid.266100.3]",225,225,21585,United Kingdom,Oxfordshire,Oxford,51.753437042236328,-1.25400972366333,GB,GB-OXF
pub.1137233109,Ten scientific reasons in support of airborne transmission of SARS-CoV-2,2021,2021-04-15,The Lancet,University of Colorado Boulder,Elsevier,article,"[grid.4991.5,grid.266190.a,grid.410711.2,grid.17063.33,grid.266100.3]",225,225,21585,United States,Colorado,Boulder,40.007366180419922,-105.2652587890625,US,US-CO
pub.1126104118,The FDA-approved drug ivermectin inhibits the replication of SARS-CoV-2 in vitro,2020,2020-04-03,Antiviral Research,Monash University,Elsevier,article,[grid.1002.3],1069,1068,21504,Australia,Victoria,Melbourne,-37.908298492431641,145.13800048828125,AU,AU-VIC
pub.1128424445,Identifying airborne transmission as the dominant route for the spread of COVID-19,2020,2020-06-11,Proceedings of the National Academy of Sciences of the United States of America,Texas A&M University,Proceedings of the National Academy of Sciences,article,"[grid.264756.4,grid.20861.3d,grid.89336.37,grid.266100.3]",601,601,21317,United States,Texas,College Station,30.610368728637695,-96.34405517578125,US,US-TX
pub.1128424445,Identifying airborne transmission as the dominant route for the spread of COVID-19,2020,2020-06-11,Proceedings of the National Academy of Sciences of the United States of America,"University of California, San Diego",Proceedings of the National Academy of Sciences,article,"[grid.264756.4,grid.20861.3d,grid.89336.37,grid.266100.3]",601,601,21317,United States,California,San Diego,32.881000518798828,-117.23799896240234,US,US-CA
pub.1128424445,Identifying airborne transmission as the dominant route for the spread of COVID-19,2020,2020-06-11,Proceedings of the National Academy of Sciences of the United States of America,The University of Texas at Austin,Proceedings of the National Academy of Sciences,article,"[grid.264756.4,grid.20861.3d,grid.89336.37,grid.266100.3]",601,601,21317,United States,Texas,Austin,30.286140441894531,-97.739418029785156,US,US-TX
pub.1128424445,Identifying airborne transmission as the dominant route for the spread of COVID-19,2020,2020-06-11,Proceedings of the National Academy of Sciences of the United States of America,California Institute of Technology,Proceedings of the National Academy of Sciences,article,"[grid.264756.4,grid.20861.3d,grid.89336.37,grid.266100.3]",601,601,21317,United States,California,Pasadena,34.138576507568359,-118.12549591064453,US,US-CA
pub.1140083857,"Outbreak of SARS-CoV-2 Infections, Including COVID-19 Vaccine Breakthrough Infections, Associated with Large Public Gatherings — Barnstable County, Massachusetts, July 2021",2021,2021-08-06,MMWR Morbidity and Mortality Weekly Report,Massachusetts Department of Public Health,Centers for Disease Control MMWR Office,article,[grid.416511.6],170,170,21011,United States,Massachusetts,Boston,42.358070373535156,-71.0577163696289,US,US-MA
pub.1126105928,Respiratory virus shedding in exhaled breath and efficacy of face masks,2020,2020-04-03,Nature Medicine,Queen Mary Hospital,Springer Nature,article,"[grid.194645.b,grid.415550.0,grid.38142.3c,grid.460833.a,grid.164295.d]",1158,1157,20968,China,Hong Kong,Hong Kong,22.270059585571289,114.13114929199219,CN,CN-91
pub.1126105928,Respiratory virus shedding in exhaled breath and efficacy of face masks,2020,2020-04-03,Nature Medicine,University of Hong Kong,Springer Nature,article,"[grid.194645.b,grid.415550.0,grid.38142.3c,grid.460833.a,grid.164295.d]",1158,1157,20968,China,Hong Kong,Hong Kong,22.283287048339844,114.13707733154297,CN,CN-91
pub.1126105928,Respiratory virus shedding in exhaled breath and efficacy of face masks,2020,2020-04-03,Nature Medicine,"University of Maryland, College Park",Springer Nature,article,"[grid.194645.b,grid.415550.0,grid.38142.3c,grid.460833.a,grid.164295.d]",1158,1157,20968,United States,Maryland,College Park,38.983047485351562,-76.941864013671875,US,US-MD
pub.1126105928,Respiratory virus shedding in exhaled breath and efficacy of face masks,2020,2020-04-03,Nature Medicine,Hong Kong Baptist Hospital,Springer Nature,article,"[grid.194645.b,grid.415550.0,grid.38142.3c,grid.460833.a,grid.164295.d]",1158,1157,20968,China,,Hong Kong,22.339624404907227,114.18015289306641,CN,
pub.1126105928,Respiratory virus shedding in exhaled breath and efficacy of face masks,2020,2020-04-03,Nature Medicine,Harvard University,Springer Nature,article,"[grid.194645.b,grid.415550.0,grid.38142.3c,grid.460833.a,grid.164295.d]",1158,1157,20968,United States,Massachusetts,Cambridge,42.377052307128906,-71.116653442382812,US,US-MA
pub.1137352852,Preliminary Findings of mRNA Covid-19 Vaccine Safety in Pregnant Persons,2021,2021-04-21,New England Journal of Medicine,Center for Biologics Evaluation and Research,Massachusetts Medical Society,article,[grid.290496.0],225,225,19916,United States,Maryland,Silver Spring,39.035507202148438,-76.9828109741211,US,US-MD
pub.1132052395,Informed consent disclosure to vaccine trial subjects of risk of COVID‐19 vaccines worsening clinical disease,2020,2020-12-04,International Journal of Clinical Practice,Tulane University,Wiley,article,"[grid.240324.3,grid.265219.b]",8,8,19856,United States,Louisiana,New Orleans,29.939493179321289,-90.122276306152344,US,US-LA
pub.1132052395,Informed consent disclosure to vaccine trial subjects of risk of COVID‐19 vaccines worsening clinical disease,2020,2020-12-04,International Journal of Clinical Practice,New York University Langone Medical Center,Wiley,article,"[grid.240324.3,grid.265219.b]",8,8,19856,United States,New York,New York,40.741970062255859,-73.974029541015625,US,US-NY
pub.1132837551,Facemasks in the COVID-19 era: A health hypothesis,2020,2020-11-22,Medical Hypotheses,Stanford University,Elsevier,article,[grid.168010.e],10,10,19796,United States,California,Stanford,37.430000305175781,-122.16999816894531,US,US-CA
pub.1128249398,Retraction—Hydroxychloroquine or chloroquine with or without a macrolide for treatment of COVID-19: a multinational registry analysis,2020,2020-06-05,The Lancet,University of Utah,Elsevier,article,"[grid.414420.7,grid.38142.3c,grid.62560.37,grid.223827.e,grid.412004.3]",357,357,19525,United States,Utah,Salt Lake City,40.764961242675781,-111.84214782714844,US,US-UT
pub.1128249398,Retraction—Hydroxychloroquine or chloroquine with or without a macrolide for treatment of COVID-19: a multinational registry analysis,2020,2020-06-05,The Lancet,Hospital Corporation of America,Elsevier,article,"[grid.414420.7,grid.38142.3c,grid.62560.37,grid.223827.e,grid.412004.3]",357,357,19525,United States,Tennessee,Nashville,36.153732299804688,-86.813774108886719,US,US-TN
pub.1128249398,Retraction—Hydroxychloroquine or chloroquine with or without a macrolide for treatment of COVID-19: a multinational registry analysis,2020,2020-06-05,The Lancet,Harvard University,Elsevier,article,"[grid.414420.7,grid.38142.3c,grid.62560.37,grid.223827.e,grid.412004.3]",357,357,19525,United States,Massachusetts,Cambridge,42.377052307128906,-71.116653442382812,US,US-MA
pub.1128249398,Retraction—Hydroxychloroquine or chloroquine with or without a macrolide for treatment of COVID-19: a multinational registry analysis,2020,2020-06-05,The Lancet,Brigham and Women's Hospital,Elsevier,article,"[grid.414420.7,grid.38142.3c,grid.62560.37,grid.223827.e,grid.412004.3]",357,357,19525,United States,Massachusetts,Boston,42.335601806640625,-71.106414794921875,US,US-MA
pub.1128249398,Retraction—Hydroxychloroquine or chloroquine with or without a macrolide for treatment of COVID-19: a multinational registry analysis,2020,2020-06-05,The Lancet,University Hospital of Zurich,Elsevier,article,"[grid.414420.7,grid.38142.3c,grid.62560.37,grid.223827.e,grid.412004.3]",357,357,19525,Switzerland,,Zurich,47.376667022705078,8.5497217178344727,CH,
pub.1126667003,Projecting the transmission dynamics of SARS-CoV-2 through the postpandemic period,2020,2020-04-14,Science,Harvard University,American Association for the Advancement of Science (AAAS),article,[grid.38142.3c],1717,1716,18900,United States,Massachusetts,Cambridge,42.377052307128906,-71.116653442382812,US,US-MA
pub.1142236059,"Community transmission and viral load kinetics of the SARS-CoV-2 delta (B.1.617.2) variant in vaccinated and unvaccinated individuals in the UK: a prospective, longitudinal, cohort study",2021,2021-10-29,The Lancet Infectious Diseases,University of Oxford,Elsevier,article,"[grid.462482.e,grid.271308.f,grid.511288.7,grid.4991.5,grid.7445.2]",53,53,18426,United Kingdom,Oxfordshire,Oxford,51.753437042236328,-1.25400972366333,GB,GB-OXF
pub.1142236059,"Community transmission and viral load kinetics of the SARS-CoV-2 delta (B.1.617.2) variant in vaccinated and unvaccinated individuals in the UK: a prospective, longitudinal, cohort study",2021,2021-10-29,The Lancet Infectious Diseases,Imperial College London,Elsevier,article,"[grid.462482.e,grid.271308.f,grid.511288.7,grid.4991.5,grid.7445.2]",53,53,18426,United Kingdom,Westminster,London,51.498600006103516,-0.175477996468544,GB,GB-WSM
pub.1142236059,"Community transmission and viral load kinetics of the SARS-CoV-2 delta (B.1.617.2) variant in vaccinated and unvaccinated individuals in the UK: a prospective, longitudinal, cohort study",2021,2021-10-29,The Lancet Infectious Diseases,Public Health England,Elsevier,article,"[grid.462482.e,grid.271308.f,grid.511288.7,grid.4991.5,grid.7445.2]",53,53,18426,United Kingdom,,London,51.691043853759766,-0.11340100318193436,GB,
pub.1142236059,"Community transmission and viral load kinetics of the SARS-CoV-2 delta (B.1.617.2) variant in vaccinated and unvaccinated individuals in the UK: a prospective, longitudinal, cohort study",2021,2021-10-29,The Lancet Infectious Diseases,Manchester Academic Health Science Centre,Elsevier,article,"[grid.462482.e,grid.271308.f,grid.511288.7,grid.4991.5,grid.7445.2]",53,53,18426,United Kingdom,,Manchester,53.463275909423828,-2.2384340763092041,GB,
pub.1142236059,"Community transmission and viral load kinetics of the SARS-CoV-2 delta (B.1.617.2) variant in vaccinated and unvaccinated individuals in the UK: a prospective, longitudinal, cohort study",2021,2021-10-29,The Lancet Infectious Diseases,London Biofoundry,Elsevier,article,"[grid.462482.e,grid.271308.f,grid.511288.7,grid.4991.5,grid.7445.2]",53,53,18426,United Kingdom,,London,51.515777587890625,-0.22449059784412384,GB,
pub.1137340253,COVID-19 vaccine efficacy and effectiveness—the elephant (not) in the room,2021,2021-04-20,The Lancet Microbe,University of Oxford,Elsevier,article,"[grid.451012.3,grid.83440.3b,grid.4991.5]",48,48,18180,United Kingdom,Oxfordshire,Oxford,51.753437042236328,-1.25400972366333,GB,GB-OXF
pub.1137340253,COVID-19 vaccine efficacy and effectiveness—the elephant (not) in the room,2021,2021-04-20,The Lancet Microbe,University College London,Elsevier,article,"[grid.451012.3,grid.83440.3b,grid.4991.5]",48,48,18180,United Kingdom,,London,51.524471282958984,-0.13398170471191406,GB,
pub.1137340253,COVID-19 vaccine efficacy and effectiveness—the elephant (not) in the room,2021,2021-04-20,The Lancet Microbe,Luxembourg Institute of Health,Elsevier,article,"[grid.451012.3,grid.83440.3b,grid.4991.5]",48,48,18180,Luxembourg,,Strassen,49.619960784912109,6.095944881439209,LU,
pub.1134321239,Assessing mandatory stay‐at‐home and business closure effects on the spread of COVID‐19,2021,2021-02,European Journal of Clinical Investigation,Stanford University,Wiley,article,[grid.168010.e],74,74,18165,United States,California,Stanford,37.430000305175781,-122.16999816894531,US,US-CA
pub.1126094786,"COVID-19 Outbreak Associated with Air Conditioning in Restaurant, Guangzhou, China, 2020",2020,2020-04-02,Emerging Infectious Diseases,Guangzhou Center for Disease Control and Prevention,Centers for Disease Control and Prevention (CDC),article,[grid.508371.8],502,502,17619,China,,Guangzhou,23.230728149414062,113.2877197265625,CN,
pub.1139835539,Effectiveness of Covid-19 Vaccines against the B.1.617.2 (Delta) Variant,2021,2021-07-21,New England Journal of Medicine,Royal Marsden Hospital,Massachusetts Medical Society,article,[grid.424926.f],677,677,17440,United Kingdom,,London,51.491279602050781,-0.17258299887180328,GB,
pub.1127950373,Reducing transmission of SARS-CoV-2,2020,2020-05-27,Science,Scripps Institution of Oceanography,American Association for the Advancement of Science (AAAS),article,"[grid.412036.2,grid.266100.3,grid.217200.6]",433,433,17276,United States,California,La Jolla,32.865436553955078,-117.25362396240234,US,US-CA
pub.1127950373,Reducing transmission of SARS-CoV-2,2020,2020-05-27,Science,National Sun Yat-sen University,American Association for the Advancement of Science (AAAS),article,"[grid.412036.2,grid.266100.3,grid.217200.6]",433,433,17276,Taiwan,,Kaohsiung City,22.626667022705078,120.26583099365234,TW,
pub.1127950373,Reducing transmission of SARS-CoV-2,2020,2020-05-27,Science,"University of California, San Diego",American Association for the Advancement of Science (AAAS),article,"[grid.412036.2,grid.266100.3,grid.217200.6]",433,433,17276,United States,California,San Diego,32.881000518798828,-117.23799896240234,US,US-CA
pub.1126759322,"COVID-19 Antibody Seroprevalence in Santa Clara County, California",2020,2020-04-17,medRxiv,Stanford University,Cold Spring Harbor Laboratory,preprint,[grid.168010.e],410,410,16675,United States,California,Stanford,37.430000305175781,-122.16999816894531,US,US-CA
pub.1126655280,Temporal dynamics in viral shedding and transmissibility of COVID-19,2020,2020-04-15,Nature Medicine,University of Hong Kong,Springer Nature,article,"[grid.194645.b,grid.410737.6]",2829,2829,16470,China,Hong Kong,Hong Kong,22.283287048339844,114.13707733154297,CN,CN-91
pub.1126655280,Temporal dynamics in viral shedding and transmissibility of COVID-19,2020,2020-04-15,Nature Medicine,Guangzhou Medical University,Springer Nature,article,"[grid.194645.b,grid.410737.6]",2829,2829,16470,China,Guangdong,Guangzhou,23.136238098144531,113.25353240966797,CN,CN-44
pub.1134494211,An evidence review of face masks against COVID-19,2021,2021-01-11,Proceedings of the National Academy of Sciences of the United States of America,Brown University,Proceedings of the National Academy of Sciences,article,"[grid.11135.37,grid.221309.b,grid.10698.36,grid.267103.1,grid.116068.8,grid.24515.37,grid.410743.5,grid.168010.e,grid.4991.5,grid.25879.31,grid.8767.e,grid.40263.33,grid.418095.1,grid.7836.a,grid.19006.3e]",235,235,16380,United States,Rhode Island,Providence,41.826198577880859,-71.4031982421875,US,US-RI
pub.1134494211,An evidence review of face masks against COVID-19,2021,2021-01-11,Proceedings of the National Academy of Sciences of the United States of America,Hong Kong Baptist University,Proceedings of the National Academy of Sciences,article,"[grid.11135.37,grid.221309.b,grid.10698.36,grid.267103.1,grid.116068.8,grid.24515.37,grid.410743.5,grid.168010.e,grid.4991.5,grid.25879.31,grid.8767.e,grid.40263.33,grid.418095.1,grid.7836.a,grid.19006.3e]",235,235,16380,China,,Hong Kong,22.338165283203125,114.18193817138672,CN,
pub.1134494211,An evidence review of face masks against COVID-19,2021,2021-01-11,Proceedings of the National Academy of Sciences of the United States of America,University of San Francisco,Proceedings of the National Academy of Sciences,article,"[grid.11135.37,grid.221309.b,grid.10698.36,grid.267103.1,grid.116068.8,grid.24515.37,grid.410743.5,grid.168010.e,grid.4991.5,grid.25879.31,grid.8767.e,grid.40263.33,grid.418095.1,grid.7836.a,grid.19006.3e]",235,235,16380,United States,California,San Francisco,37.779445648193359,-122.45194244384766,US,US-CA
pub.1134494211,An evidence review of face masks against COVID-19,2021,2021-01-11,Proceedings of the National Academy of Sciences of the United States of America,"University of California, Los Angeles",Proceedings of the National Academy of Sciences,article,"[grid.11135.37,grid.221309.b,grid.10698.36,grid.267103.1,grid.116068.8,grid.24515.37,grid.410743.5,grid.168010.e,grid.4991.5,grid.25879.31,grid.8767.e,grid.40263.33,grid.418095.1,grid.7836.a,grid.19006.3e]",235,235,16380,United States,California,Los Angeles,34.072223663330078,-118.44409942626953,US,US-CA
pub.1134494211,An evidence review of face masks against COVID-19,2021,2021-01-11,Proceedings of the National Academy of Sciences of the United States of America,Peking University,Proceedings of the National Academy of Sciences,article,"[grid.11135.37,grid.221309.b,grid.10698.36,grid.267103.1,grid.116068.8,grid.24515.37,grid.410743.5,grid.168010.e,grid.4991.5,grid.25879.31,grid.8767.e,grid.40263.33,grid.418095.1,grid.7836.a,grid.19006.3e]",235,235,16380,China,Beijing,Beijing,39.987152099609375,116.30585479736328,CN,CN-11
pub.1134494211,An evidence review of face masks against COVID-19,2021,2021-01-11,Proceedings of the National Academy of Sciences of the United States of America,Stanford University,Proceedings of the National Academy of Sciences,article,"[grid.11135.37,grid.221309.b,grid.10698.36,grid.267103.1,grid.116068.8,grid.24515.37,grid.410743.5,grid.168010.e,grid.4991.5,grid.25879.31,grid.8767.e,grid.40263.33,grid.418095.1,grid.7836.a,grid.19006.3e]",235,235,16380,United States,California,Stanford,37.430000305175781,-122.16999816894531,US,US-CA
pub.1134494211,An evidence review of face masks against COVID-19,2021,2021-01-11,Proceedings of the National Academy of Sciences of the United States of America,University of Pennsylvania,Proceedings of the National Academy of Sciences,article,"[grid.11135.37,grid.221309.b,grid.10698.36,grid.267103.1,grid.116068.8,grid.24515.37,grid.410743.5,grid.168010.e,grid.4991.5,grid.25879.31,grid.8767.e,grid.40263.33,grid.418095.1,grid.7836.a,grid.19006.3e]",235,235,16380,United States,Pennsylvania,Philadelphia,39.952457427978516,-75.193222045898438,US,US-PA
pub.1134494211,An evidence review of face masks against COVID-19,2021,2021-01-11,Proceedings of the National Academy of Sciences of the United States of America,Hong Kong University of Science and Technology,Proceedings of the National Academy of Sciences,article,"[grid.11135.37,grid.221309.b,grid.10698.36,grid.267103.1,grid.116068.8,grid.24515.37,grid.410743.5,grid.168010.e,grid.4991.5,grid.25879.31,grid.8767.e,grid.40263.33,grid.418095.1,grid.7836.a,grid.19006.3e]",235,235,16380,China,Hong Kong,Hong Kong,22.336181640625,114.26512145996094,CN,CN-91
pub.1134494211,An evidence review of face masks against COVID-19,2021,2021-01-11,Proceedings of the National Academy of Sciences of the United States of America,University of Cape Town,Proceedings of the National Academy of Sciences,article,"[grid.11135.37,grid.221309.b,grid.10698.36,grid.267103.1,grid.116068.8,grid.24515.37,grid.410743.5,grid.168010.e,grid.4991.5,grid.25879.31,grid.8767.e,grid.40263.33,grid.418095.1,grid.7836.a,grid.19006.3e]",235,235,16380,South Africa,,Rondebosch,-33.957500457763672,18.460556030273438,ZA,
pub.1134494211,An evidence review of face masks against COVID-19,2021,2021-01-11,Proceedings of the National Academy of Sciences of the United States of America,Massachusetts Institute of Technology,Proceedings of the National Academy of Sciences,article,"[grid.11135.37,grid.221309.b,grid.10698.36,grid.267103.1,grid.116068.8,grid.24515.37,grid.410743.5,grid.168010.e,grid.4991.5,grid.25879.31,grid.8767.e,grid.40263.33,grid.418095.1,grid.7836.a,grid.19006.3e]",235,235,16380,United States,Massachusetts,Cambridge,42.359821319580078,-71.092109680175781,US,US-MA
pub.1134494211,An evidence review of face masks against COVID-19,2021,2021-01-11,Proceedings of the National Academy of Sciences of the United States of America,Beijing Computational Science Research Center,Proceedings of the National Academy of Sciences,article,"[grid.11135.37,grid.221309.b,grid.10698.36,grid.267103.1,grid.116068.8,grid.24515.37,grid.410743.5,grid.168010.e,grid.4991.5,grid.25879.31,grid.8767.e,grid.40263.33,grid.418095.1,grid.7836.a,grid.19006.3e]",235,235,16380,China,,Beijing,39.914325714111328,116.38093566894531,CN,
pub.1134494211,An evidence review of face masks against COVID-19,2021,2021-01-11,Proceedings of the National Academy of Sciences of the United States of America,University of North Carolina at Chapel Hill,Proceedings of the National Academy of Sciences,article,"[grid.11135.37,grid.221309.b,grid.10698.36,grid.267103.1,grid.116068.8,grid.24515.37,grid.410743.5,grid.168010.e,grid.4991.5,grid.25879.31,grid.8767.e,grid.40263.33,grid.418095.1,grid.7836.a,grid.19006.3e]",235,235,16380,United States,North Carolina,Chapel Hill,35.9051628112793,-79.046943664550781,US,US-NC
pub.1134494211,An evidence review of face masks against COVID-19,2021,2021-01-11,Proceedings of the National Academy of Sciences of the United States of America,University of Oxford,Proceedings of the National Academy of Sciences,article,"[grid.11135.37,grid.221309.b,grid.10698.36,grid.267103.1,grid.116068.8,grid.24515.37,grid.410743.5,grid.168010.e,grid.4991.5,grid.25879.31,grid.8767.e,grid.40263.33,grid.418095.1,grid.7836.a,grid.19006.3e]",235,235,16380,United Kingdom,Oxfordshire,Oxford,51.753437042236328,-1.25400972366333,GB,GB-OXF
pub.1134494211,An evidence review of face masks against COVID-19,2021,2021-01-11,Proceedings of the National Academy of Sciences of the United States of America,Vrije Universiteit Brussel,Proceedings of the National Academy of Sciences,article,"[grid.11135.37,grid.221309.b,grid.10698.36,grid.267103.1,grid.116068.8,grid.24515.37,grid.410743.5,grid.168010.e,grid.4991.5,grid.25879.31,grid.8767.e,grid.40263.33,grid.418095.1,grid.7836.a,grid.19006.3e]",235,235,16380,Belgium,,Brussels,50.823200225830078,4.3925881385803223,BE,
pub.1134494211,An evidence review of face masks against COVID-19,2021,2021-01-11,Proceedings of the National Academy of Sciences of the United States of America,Czech Academy of Sciences,Proceedings of the National Academy of Sciences,article,"[grid.11135.37,grid.221309.b,grid.10698.36,grid.267103.1,grid.116068.8,grid.24515.37,grid.410743.5,grid.168010.e,grid.4991.5,grid.25879.31,grid.8767.e,grid.40263.33,grid.418095.1,grid.7836.a,grid.19006.3e]",235,235,16380,Czechia,,Prague,50.081390380859375,14.414167404174805,CZ,
pub.1137733034,Review of the Emerging Evidence Demonstrating the Efficacy of Ivermectin in the Prophylaxis and Treatment of COVID-19,2021,2021-04-22,American Journal of Therapeutics,The University of Texas Health Science Center at Houston,Wolters Kluwer,article,"[grid.267301.1,grid.267308.8,grid.255414.3,grid.413847.d]",48,48,16325,United States,Texas,Houston,29.703306198120117,-95.4030532836914,US,US-TX
pub.1137733034,Review of the Emerging Evidence Demonstrating the Efficacy of Ivermectin in the Prophylaxis and Treatment of COVID-19,2021,2021-04-22,American Journal of Therapeutics,Eastern Virginia Medical School,Wolters Kluwer,article,"[grid.267301.1,grid.267308.8,grid.255414.3,grid.413847.d]",48,48,16325,United States,Virginia,Norfolk,36.860122680664062,-76.30096435546875,US,US-VA
pub.1137733034,Review of the Emerging Evidence Demonstrating the Efficacy of Ivermectin in the Prophylaxis and Treatment of COVID-19,2021,2021-04-22,American Journal of Therapeutics,Memphis VA Medical Center,Wolters Kluwer,article,"[grid.267301.1,grid.267308.8,grid.255414.3,grid.413847.d]",48,48,16325,United States,Tennessee,Memphis,35.144321441650391,-90.0262451171875,US,US-TN
pub.1137733034,Review of the Emerging Evidence Demonstrating the Efficacy of Ivermectin in the Prophylaxis and Treatment of COVID-19,2021,2021-04-22,American Journal of Therapeutics,University of Tennessee Health Science Center,Wolters Kluwer,article,"[grid.267301.1,grid.267308.8,grid.255414.3,grid.413847.d]",48,48,16325,United States,Tennessee,Memphis,35.139572143554688,-90.0301513671875,US,US-TN
pub.1144086196,Vaccine effectiveness against SARS-CoV-2 infection with the Omicron or Delta variants following a two-dose or booster BNT162b2 or mRNA-1273 vaccination series: A Danish cohort study,2021,2021-12-21,medRxiv,Statens Serum Institut,Cold Spring Harbor Laboratory,preprint,[grid.6203.7],6,6,16319,Denmark,Hovedstaden,Copenhagen,55.666000366210938,12.590999603271484,DK,DK-84
pub.1140147868,"Ivermectin: a multifaceted drug of Nobel prize-honoured distinction with indicated efficacy against a new global scourge, COVID-19",2021,2021-08-03,New Microbes and New Infections,Centre For Digestive Diseases,Elsevier,article,"[grid.492342.a,grid.47100.32,grid.264756.4,grid.410786.c]",1,1,16292,Australia,New South Wales,Five Dock,-33.865104675292969,151.12997436523438,AU,AU-NSW
pub.1140147868,"Ivermectin: a multifaceted drug of Nobel prize-honoured distinction with indicated efficacy against a new global scourge, COVID-19",2021,2021-08-03,New Microbes and New Infections,Yale University,Elsevier,article,"[grid.492342.a,grid.47100.32,grid.264756.4,grid.410786.c]",1,1,16292,United States,Connecticut,New Haven,41.302093505859375,-72.930656433105469,US,US-CT
pub.1140147868,"Ivermectin: a multifaceted drug of Nobel prize-honoured distinction with indicated efficacy against a new global scourge, COVID-19",2021,2021-08-03,New Microbes and New Infections,Texas A&M University,Elsevier,article,"[grid.492342.a,grid.47100.32,grid.264756.4,grid.410786.c]",1,1,16292,United States,Texas,College Station,30.610368728637695,-96.34405517578125,US,US-TX
pub.1140147868,"Ivermectin: a multifaceted drug of Nobel prize-honoured distinction with indicated efficacy against a new global scourge, COVID-19",2021,2021-08-03,New Microbes and New Infections,Kitasato University,Elsevier,article,"[grid.492342.a,grid.47100.32,grid.264756.4,grid.410786.c]",1,1,16292,Japan,,Tokyo,35.642559051513672,139.72563171386719,JP,
pub.1125685505,Substantial undocumented infection facilitates the rapid dissemination of novel coronavirus (SARS-CoV-2),2020,2020-03-16,Science,Tsinghua University,American Association for the Advancement of Science (AAAS),article,"[grid.27860.3b,grid.194645.b,grid.21729.3f,grid.12527.33,grid.7445.2]",2400,2400,16274,China,Beijing,Beijing,39.999584197998047,116.32541656494141,CN,CN-11
pub.1125685505,Substantial undocumented infection facilitates the rapid dissemination of novel coronavirus (SARS-CoV-2),2020,2020-03-16,Science,Imperial College London,American Association for the Advancement of Science (AAAS),article,"[grid.27860.3b,grid.194645.b,grid.21729.3f,grid.12527.33,grid.7445.2]",2400,2400,16274,United Kingdom,Westminster,London,51.498600006103516,-0.175477996468544,GB,GB-WSM
pub.1125685505,Substantial undocumented infection facilitates the rapid dissemination of novel coronavirus (SARS-CoV-2),2020,2020-03-16,Science,University of Hong Kong,American Association for the Advancement of Science (AAAS),article,"[grid.27860.3b,grid.194645.b,grid.21729.3f,grid.12527.33,grid.7445.2]",2400,2400,16274,China,Hong Kong,Hong Kong,22.283287048339844,114.13707733154297,CN,CN-91
pub.1125685505,Substantial undocumented infection facilitates the rapid dissemination of novel coronavirus (SARS-CoV-2),2020,2020-03-16,Science,Columbia University,American Association for the Advancement of Science (AAAS),article,"[grid.27860.3b,grid.194645.b,grid.21729.3f,grid.12527.33,grid.7445.2]",2400,2400,16274,United States,New York,New York,40.807598114013672,-73.962387084960938,US,US-NY
pub.1125685505,Substantial undocumented infection facilitates the rapid dissemination of novel coronavirus (SARS-CoV-2),2020,2020-03-16,Science,"University of California, Davis",American Association for the Advancement of Science (AAAS),article,"[grid.27860.3b,grid.194645.b,grid.21729.3f,grid.12527.33,grid.7445.2]",2400,2400,16274,United States,California,Davis,38.540000915527344,-121.75,US,US-CA
pub.1130340155,Two metres or one: what is the evidence for physical distancing in covid-19?,2020,2020-08-25,The BMJ,St Thomas' Hospital,BMJ,article,"[grid.4991.5,grid.116068.8,grid.425213.3]",177,177,15789,United Kingdom,,London,51.498817443847656,-0.11910080909729004,GB,
pub.1130340155,Two metres or one: what is the evidence for physical distancing in covid-19?,2020,2020-08-25,The BMJ,University of Oxford,BMJ,article,"[grid.4991.5,grid.116068.8,grid.425213.3]",177,177,15789,United Kingdom,Oxfordshire,Oxford,51.753437042236328,-1.25400972366333,GB,GB-OXF
pub.1130340155,Two metres or one: what is the evidence for physical distancing in covid-19?,2020,2020-08-25,The BMJ,Massachusetts Institute of Technology,BMJ,article,"[grid.4991.5,grid.116068.8,grid.425213.3]",177,177,15789,United States,Massachusetts,Cambridge,42.359821319580078,-71.092109680175781,US,US-MA
pub.1130541657,Low-cost measurement of face mask efficacy for filtering expelled droplets during speech,2020,2020-09-02,Science Advances,Duke University,American Association for the Advancement of Science (AAAS),article,[grid.26009.3d],165,165,15710,United States,North Carolina,Durham,36.003147125244141,-78.926895141601562,US,US-NC
pub.1129493369,"Safety and immunogenicity of the ChAdOx1 nCoV-19 vaccine against SARS-CoV-2: a preliminary report of a phase 1/2, single-blind, randomised controlled trial",2020,2020-07-20,The Lancet,Philipp University of Marburg,Elsevier,article,"[grid.454382.c,grid.5491.9,grid.271308.f,grid.5337.2,grid.7445.2,grid.10253.35,grid.4991.5,grid.264200.2]",1234,1234,15501,Germany,,Marburg,50.810832977294922,8.7736110687255859,DE,
pub.1129493369,"Safety and immunogenicity of the ChAdOx1 nCoV-19 vaccine against SARS-CoV-2: a preliminary report of a phase 1/2, single-blind, randomised controlled trial",2020,2020-07-20,The Lancet,University of Southampton,Elsevier,article,"[grid.454382.c,grid.5491.9,grid.271308.f,grid.5337.2,grid.7445.2,grid.10253.35,grid.4991.5,grid.264200.2]",1234,1234,15501,United Kingdom,,Southampton,50.93463134765625,-1.3959499597549438,GB,
pub.1129493369,"Safety and immunogenicity of the ChAdOx1 nCoV-19 vaccine against SARS-CoV-2: a preliminary report of a phase 1/2, single-blind, randomised controlled trial",2020,2020-07-20,The Lancet,University of Oxford,Elsevier,article,"[grid.454382.c,grid.5491.9,grid.271308.f,grid.5337.2,grid.7445.2,grid.10253.35,grid.4991.5,grid.264200.2]",1234,1234,15501,United Kingdom,Oxfordshire,Oxford,51.753437042236328,-1.25400972366333,GB,GB-OXF
pub.1129493369,"Safety and immunogenicity of the ChAdOx1 nCoV-19 vaccine against SARS-CoV-2: a preliminary report of a phase 1/2, single-blind, randomised controlled trial",2020,2020-07-20,The Lancet,University of Bristol,Elsevier,article,"[grid.454382.c,grid.5491.9,grid.271308.f,grid.5337.2,grid.7445.2,grid.10253.35,grid.4991.5,grid.264200.2]",1234,1234,15501,United Kingdom,,Bristol,51.456390380859375,-2.6044440269470215,GB,
pub.1129493369,"Safety and immunogenicity of the ChAdOx1 nCoV-19 vaccine against SARS-CoV-2: a preliminary report of a phase 1/2, single-blind, randomised controlled trial",2020,2020-07-20,The Lancet,Public Health England,Elsevier,article,"[grid.454382.c,grid.5491.9,grid.271308.f,grid.5337.2,grid.7445.2,grid.10253.35,grid.4991.5,grid.264200.2]",1234,1234,15501,United Kingdom,,London,51.691043853759766,-0.11340100318193436,GB,
pub.1129493369,"Safety and immunogenicity of the ChAdOx1 nCoV-19 vaccine against SARS-CoV-2: a preliminary report of a phase 1/2, single-blind, randomised controlled trial",2020,2020-07-20,The Lancet,NIHR Oxford Musculoskeletal Biomedical Research Centre,Elsevier,article,"[grid.454382.c,grid.5491.9,grid.271308.f,grid.5337.2,grid.7445.2,grid.10253.35,grid.4991.5,grid.264200.2]",1234,1234,15501,United Kingdom,,Oxford,51.754344940185547,-1.2093130350112915,GB,
pub.1129493369,"Safety and immunogenicity of the ChAdOx1 nCoV-19 vaccine against SARS-CoV-2: a preliminary report of a phase 1/2, single-blind, randomised controlled trial",2020,2020-07-20,The Lancet,Imperial College London,Elsevier,article,"[grid.454382.c,grid.5491.9,grid.271308.f,grid.5337.2,grid.7445.2,grid.10253.35,grid.4991.5,grid.264200.2]",1234,1234,15501,United Kingdom,Westminster,London,51.498600006103516,-0.175477996468544,GB,GB-WSM
pub.1129493369,"Safety and immunogenicity of the ChAdOx1 nCoV-19 vaccine against SARS-CoV-2: a preliminary report of a phase 1/2, single-blind, randomised controlled trial",2020,2020-07-20,The Lancet,"St George's, University of London",Elsevier,article,"[grid.454382.c,grid.5491.9,grid.271308.f,grid.5337.2,grid.7445.2,grid.10253.35,grid.4991.5,grid.264200.2]",1234,1234,15501,United Kingdom,,London,51.427387237548828,-0.17451399564743042,GB,
pub.1139252270,Experimental Assessment of Carbon Dioxide Content in Inhaled Air With or Without Face Masks in Healthy Children,2021,2021-06-30,JAMA Pediatrics,Poznan University of Medical Sciences,American Medical Association (AMA),article,[grid.22254.33],2,2,15296,Poland,,Poznań,52.409442901611328,16.918888092041016,PL,
pub.1126753049,In Pursuit of PPE,2020,2020-04-17,New England Journal of Medicine,Baystate Health,Massachusetts Medical Society,article,[grid.476946.e],49,49,15024,United States,Massachusetts,Springfield,42.108737945556641,-72.594062805175781,US,US-MA
pub.1132629215,"Covid-19: politicisation, “corruption,” and suppression of science",2020,2020-11-13,The BMJ,British Medical Association,BMJ,article,[grid.431398.4],38,38,14997,United Kingdom,,London,51.525722503662109,-0.12857499718666077,GB,
pub.1129357618,An mRNA Vaccine against SARS-CoV-2 — Preliminary Report,2020,2020-07-14,New England Journal of Medicine,National Institute of Allergy and Infectious Diseases,Massachusetts Medical Society,article,[grid.419681.3],1627,1626,14644,United States,Maryland,Bethesda,39.066646575927734,-77.111831665039062,US,US-MD
pub.1124290823,"Clinical features of patients infected with 2019 novel coronavirus in Wuhan, China",2020,2020-01-24,The Lancet,Huazhong University of Science and Technology,Elsevier,article,"[grid.12527.33,grid.452723.5,grid.33199.31,grid.413247.7,grid.412793.a,grid.507952.c,grid.411472.5,grid.415954.8,grid.24696.3f,grid.506261.6,grid.411634.5]",26959,26930,14626,China,,Wuhan,30.508182525634766,114.41474151611328,CN,
pub.1124290823,"Clinical features of patients infected with 2019 novel coronavirus in Wuhan, China",2020,2020-01-24,The Lancet,Peking University People's Hospital,Elsevier,article,"[grid.12527.33,grid.452723.5,grid.33199.31,grid.413247.7,grid.412793.a,grid.507952.c,grid.411472.5,grid.415954.8,grid.24696.3f,grid.506261.6,grid.411634.5]",26959,26930,14626,China,,Beijing,39.937652587890625,116.35475921630859,CN,
pub.1124290823,"Clinical features of patients infected with 2019 novel coronavirus in Wuhan, China",2020,2020-01-24,The Lancet,Center for Life Sciences,Elsevier,article,"[grid.12527.33,grid.452723.5,grid.33199.31,grid.413247.7,grid.412793.a,grid.507952.c,grid.411472.5,grid.415954.8,grid.24696.3f,grid.506261.6,grid.411634.5]",26959,26930,14626,China,,Beijing,39.917293548583984,116.40158081054688,CN,
pub.1124290823,"Clinical features of patients infected with 2019 novel coronavirus in Wuhan, China",2020,2020-01-24,The Lancet,Peking University First Hospital,Elsevier,article,"[grid.12527.33,grid.452723.5,grid.33199.31,grid.413247.7,grid.412793.a,grid.507952.c,grid.411472.5,grid.415954.8,grid.24696.3f,grid.506261.6,grid.411634.5]",26959,26930,14626,China,,Beijing,39.932243347167969,116.381103515625,CN,
pub.1124290823,"Clinical features of patients infected with 2019 novel coronavirus in Wuhan, China",2020,2020-01-24,The Lancet,China-Japan Friendship Hospital,Elsevier,article,"[grid.12527.33,grid.452723.5,grid.33199.31,grid.413247.7,grid.412793.a,grid.507952.c,grid.411472.5,grid.415954.8,grid.24696.3f,grid.506261.6,grid.411634.5]",26959,26930,14626,China,,Beijing,39.974925994873047,116.427001953125,CN,
pub.1124290823,"Clinical features of patients infected with 2019 novel coronavirus in Wuhan, China",2020,2020-01-24,The Lancet,Tongji Hospital,Elsevier,article,"[grid.12527.33,grid.452723.5,grid.33199.31,grid.413247.7,grid.412793.a,grid.507952.c,grid.411472.5,grid.415954.8,grid.24696.3f,grid.506261.6,grid.411634.5]",26959,26930,14626,China,,Wuhan,30.578750610351562,114.26175689697266,CN,
pub.1124290823,"Clinical features of patients infected with 2019 novel coronavirus in Wuhan, China",2020,2020-01-24,The Lancet,Tsinghua University,Elsevier,article,"[grid.12527.33,grid.452723.5,grid.33199.31,grid.413247.7,grid.412793.a,grid.507952.c,grid.411472.5,grid.415954.8,grid.24696.3f,grid.506261.6,grid.411634.5]",26959,26930,14626,China,Beijing,Beijing,39.999584197998047,116.32541656494141,CN,CN-11
pub.1124290823,"Clinical features of patients infected with 2019 novel coronavirus in Wuhan, China",2020,2020-01-24,The Lancet,Capital Medical University,Elsevier,article,"[grid.12527.33,grid.452723.5,grid.33199.31,grid.413247.7,grid.412793.a,grid.507952.c,grid.411472.5,grid.415954.8,grid.24696.3f,grid.506261.6,grid.411634.5]",26959,26930,14626,China,,Beijing,39.865432739257812,116.35283660888672,CN,
pub.1124290823,"Clinical features of patients infected with 2019 novel coronavirus in Wuhan, China",2020,2020-01-24,The Lancet,Zhongnan Hospital of Wuhan University,Elsevier,article,"[grid.12527.33,grid.452723.5,grid.33199.31,grid.413247.7,grid.412793.a,grid.507952.c,grid.411472.5,grid.415954.8,grid.24696.3f,grid.506261.6,grid.411634.5]",26959,26930,14626,China,,Wuhan,30.554094314575195,114.35368347167969,CN,
pub.1124290823,"Clinical features of patients infected with 2019 novel coronavirus in Wuhan, China",2020,2020-01-24,The Lancet,Jinyintan Hospital,Elsevier,article,"[grid.12527.33,grid.452723.5,grid.33199.31,grid.413247.7,grid.412793.a,grid.507952.c,grid.411472.5,grid.415954.8,grid.24696.3f,grid.506261.6,grid.411634.5]",26959,26930,14626,China,,Wuhan,30.66705322265625,114.28695678710938,CN,
pub.1124290823,"Clinical features of patients infected with 2019 novel coronavirus in Wuhan, China",2020,2020-01-24,The Lancet,Chinese Academy of Medical Sciences & Peking Union Medical College,Elsevier,article,"[grid.12527.33,grid.452723.5,grid.33199.31,grid.413247.7,grid.412793.a,grid.507952.c,grid.411472.5,grid.415954.8,grid.24696.3f,grid.506261.6,grid.411634.5]",26959,26930,14626,China,,Beijing,39.911491394042969,116.41478729248047,CN,
pub.1140672843,Airborne transmission of respiratory viruses,2021,2021-08-27,Science,National Sun Yat-sen University,American Association for the Advancement of Science (AAAS),article,"[grid.217200.6,grid.412036.2,grid.266190.a,grid.6451.6,grid.410711.2,grid.438526.e,grid.21925.3d]",47,47,14310,Taiwan,,Kaohsiung City,22.626667022705078,120.26583099365234,TW,
pub.1140672843,Airborne transmission of respiratory viruses,2021,2021-08-27,Science,University of North Carolina System,American Association for the Advancement of Science (AAAS),article,"[grid.217200.6,grid.412036.2,grid.266190.a,grid.6451.6,grid.410711.2,grid.438526.e,grid.21925.3d]",47,47,14310,United States,North Carolina,Chapel Hill,35.904914855957031,-79.046920776367188,US,US-NC
pub.1140672843,Airborne transmission of respiratory viruses,2021,2021-08-27,Science,University of Colorado Boulder,American Association for the Advancement of Science (AAAS),article,"[grid.217200.6,grid.412036.2,grid.266190.a,grid.6451.6,grid.410711.2,grid.438526.e,grid.21925.3d]",47,47,14310,United States,Colorado,Boulder,40.007366180419922,-105.2652587890625,US,US-CO
pub.1140672843,Airborne transmission of respiratory viruses,2021,2021-08-27,Science,Virginia Tech,American Association for the Advancement of Science (AAAS),article,"[grid.217200.6,grid.412036.2,grid.266190.a,grid.6451.6,grid.410711.2,grid.438526.e,grid.21925.3d]",47,47,14310,United States,Virginia,Blacksburg,37.220008850097656,-80.424087524414062,US,US-VA
pub.1140672843,Airborne transmission of respiratory viruses,2021,2021-08-27,Science,Technion – Israel Institute of Technology,American Association for the Advancement of Science (AAAS),article,"[grid.217200.6,grid.412036.2,grid.266190.a,grid.6451.6,grid.410711.2,grid.438526.e,grid.21925.3d]",47,47,14310,Israel,,Haifa,32.777500152587891,35.02166748046875,IL,
pub.1140672843,Airborne transmission of respiratory viruses,2021,2021-08-27,Science,Scripps Institution of Oceanography,American Association for the Advancement of Science (AAAS),article,"[grid.217200.6,grid.412036.2,grid.266190.a,grid.6451.6,grid.410711.2,grid.438526.e,grid.21925.3d]",47,47,14310,United States,California,La Jolla,32.865436553955078,-117.25362396240234,US,US-CA
pub.1140672843,Airborne transmission of respiratory viruses,2021,2021-08-27,Science,University of Pittsburgh,American Association for the Advancement of Science (AAAS),article,"[grid.217200.6,grid.412036.2,grid.266190.a,grid.6451.6,grid.410711.2,grid.438526.e,grid.21925.3d]",47,47,14310,United States,Pennsylvania,Pittsburgh,40.443504333496094,-79.9615249633789,US,US-PA
pub.1141870334,SARS–CoV–2 Spike Impairs DNA Damage Repair and Inhibits V(D)J Recombination In Vitro,2021,2021-10-13,Viruses,Umeå University,MDPI,article,"[grid.12650.30,grid.10548.38]",2,2,14292,Sweden,,Umeå,63.821567535400391,20.310623168945312,SE,
pub.1141870334,SARS–CoV–2 Spike Impairs DNA Damage Repair and Inhibits V(D)J Recombination In Vitro,2021,2021-10-13,Viruses,Stockholm University,MDPI,article,"[grid.12650.30,grid.10548.38]",2,2,14292,Sweden,,Stockholm,59.365276336669922,18.058332443237305,SE,
pub.1142404473,"Laboratory-Confirmed COVID-19 Among Adults Hospitalized with COVID-19–Like Illness with Infection-Induced or mRNA Vaccine-Induced SARS-CoV-2 Immunity — Nine States, January–September 2021",2021,2021-11-05,MMWR Morbidity and Mortality Weekly Report,Regenstrief Institute,Centers for Disease Control MMWR Office,article,[grid.448342.d],9,9,14205,United States,Indiana,Indianapolis,39.781513214111328,-86.166885375976562,US,US-IN
pub.1129597854,Outcomes of Cardiovascular Magnetic Resonance Imaging in Patients Recently Recovered From Coronavirus Disease 2019 (COVID-19),2020,2020-11-01,JAMA Cardiology,University Hospital Frankfurt,American Medical Association (AMA),article,"[grid.448878.f,grid.411088.4,grid.10438.3e]",903,903,13944,Germany,,Frankfurt am Main,50.096473693847656,8.6613330841064453,DE,
pub.1129597854,Outcomes of Cardiovascular Magnetic Resonance Imaging in Patients Recently Recovered From Coronavirus Disease 2019 (COVID-19),2020,2020-11-01,JAMA Cardiology,University of Messina,American Medical Association (AMA),article,"[grid.448878.f,grid.411088.4,grid.10438.3e]",903,903,13944,Italy,,Messina,38.192691802978516,15.546197891235352,IT,
pub.1129597854,Outcomes of Cardiovascular Magnetic Resonance Imaging in Patients Recently Recovered From Coronavirus Disease 2019 (COVID-19),2020,2020-11-01,JAMA Cardiology,Sechenov University,American Medical Association (AMA),article,"[grid.448878.f,grid.411088.4,grid.10438.3e]",903,903,13944,Russia,,Moscow,55.728057861328125,37.575000762939453,RU,
pub.1133359801,"Safety and efficacy of the ChAdOx1 nCoV-19 vaccine (AZD1222) against SARS-CoV-2: an interim analysis of four randomised controlled trials in Brazil, South Africa, and the UK",2020,2020-12-08,The Lancet,Newcastle upon Tyne Hospitals NHS Foundation Trust,Elsevier,article,"[grid.7836.a,grid.415052.7,grid.8991.9,grid.418484.5,grid.9481.4,grid.411249.b,grid.411239.c,grid.10025.36,grid.477887.3,grid.11951.3d,grid.420004.2,grid.412563.7,grid.417815.e,grid.451056.3,grid.2515.3,grid.11956.3a,grid.511123.5,grid.31410.37,grid.500643.4,grid.264200.2,grid.11835.3e,grid.5491.9,grid.8532.c,grid.417068.c,grid.439475.8,grid.411233.6,grid.464526.7,grid.512085.b,grid.414449.8,grid.425213.3,grid.5337.2,grid.472984.4,grid.414171.6,grid.5335.0,grid.24029.3d,grid.8756.c,grid.412939.4,grid.430506.4,grid.4991.5,grid.442019.a,grid.1006.7]",1971,1970,13714,United Kingdom,,Newcastle upon Tyne,54.976863861083984,-1.6461999416351318,GB,
pub.1133359801,"Safety and efficacy of the ChAdOx1 nCoV-19 vaccine (AZD1222) against SARS-CoV-2: an interim analysis of four randomised controlled trials in Brazil, South Africa, and the UK",2020,2020-12-08,The Lancet,University of Hull,Elsevier,article,"[grid.7836.a,grid.415052.7,grid.8991.9,grid.418484.5,grid.9481.4,grid.411249.b,grid.411239.c,grid.10025.36,grid.477887.3,grid.11951.3d,grid.420004.2,grid.412563.7,grid.417815.e,grid.451056.3,grid.2515.3,grid.11956.3a,grid.511123.5,grid.31410.37,grid.500643.4,grid.264200.2,grid.11835.3e,grid.5491.9,grid.8532.c,grid.417068.c,grid.439475.8,grid.411233.6,grid.464526.7,grid.512085.b,grid.414449.8,grid.425213.3,grid.5337.2,grid.472984.4,grid.414171.6,grid.5335.0,grid.24029.3d,grid.8756.c,grid.412939.4,grid.430506.4,grid.4991.5,grid.442019.a,grid.1006.7]",1971,1970,13714,United Kingdom,Kingston upon Hull,Hull,53.770263671875,-0.3671410083770752,GB,GB-KHL
pub.1133359801,"Safety and efficacy of the ChAdOx1 nCoV-19 vaccine (AZD1222) against SARS-CoV-2: an interim analysis of four randomised controlled trials in Brazil, South Africa, and the UK",2020,2020-12-08,The Lancet,Aneurin Bevan University Health Board,Elsevier,article,"[grid.7836.a,grid.415052.7,grid.8991.9,grid.418484.5,grid.9481.4,grid.411249.b,grid.411239.c,grid.10025.36,grid.477887.3,grid.11951.3d,grid.420004.2,grid.412563.7,grid.417815.e,grid.451056.3,grid.2515.3,grid.11956.3a,grid.511123.5,grid.31410.37,grid.500643.4,grid.264200.2,grid.11835.3e,grid.5491.9,grid.8532.c,grid.417068.c,grid.439475.8,grid.411233.6,grid.464526.7,grid.512085.b,grid.414449.8,grid.425213.3,grid.5337.2,grid.472984.4,grid.414171.6,grid.5335.0,grid.24029.3d,grid.8756.c,grid.412939.4,grid.430506.4,grid.4991.5,grid.442019.a,grid.1006.7]",1971,1970,13714,United Kingdom,,Newport,51.613399505615234,-2.9671399593353271,GB,
pub.1133359801,"Safety and efficacy of the ChAdOx1 nCoV-19 vaccine (AZD1222) against SARS-CoV-2: an interim analysis of four randomised controlled trials in Brazil, South Africa, and the UK",2020,2020-12-08,The Lancet,University of Southampton,Elsevier,article,"[grid.7836.a,grid.415052.7,grid.8991.9,grid.418484.5,grid.9481.4,grid.411249.b,grid.411239.c,grid.10025.36,grid.477887.3,grid.11951.3d,grid.420004.2,grid.412563.7,grid.417815.e,grid.451056.3,grid.2515.3,grid.11956.3a,grid.511123.5,grid.31410.37,grid.500643.4,grid.264200.2,grid.11835.3e,grid.5491.9,grid.8532.c,grid.417068.c,grid.439475.8,grid.411233.6,grid.464526.7,grid.512085.b,grid.414449.8,grid.425213.3,grid.5337.2,grid.472984.4,grid.414171.6,grid.5335.0,grid.24029.3d,grid.8756.c,grid.412939.4,grid.430506.4,grid.4991.5,grid.442019.a,grid.1006.7]",1971,1970,13714,United Kingdom,,Southampton,50.93463134765625,-1.3959499597549438,GB,
pub.1133359801,"Safety and efficacy of the ChAdOx1 nCoV-19 vaccine (AZD1222) against SARS-CoV-2: an interim analysis of four randomised controlled trials in Brazil, South Africa, and the UK",2020,2020-12-08,The Lancet,Hospital de Clínicas de Porto Alegre,Elsevier,article,"[grid.7836.a,grid.415052.7,grid.8991.9,grid.418484.5,grid.9481.4,grid.411249.b,grid.411239.c,grid.10025.36,grid.477887.3,grid.11951.3d,grid.420004.2,grid.412563.7,grid.417815.e,grid.451056.3,grid.2515.3,grid.11956.3a,grid.511123.5,grid.31410.37,grid.500643.4,grid.264200.2,grid.11835.3e,grid.5491.9,grid.8532.c,grid.417068.c,grid.439475.8,grid.411233.6,grid.464526.7,grid.512085.b,grid.414449.8,grid.425213.3,grid.5337.2,grid.472984.4,grid.414171.6,grid.5335.0,grid.24029.3d,grid.8756.c,grid.412939.4,grid.430506.4,grid.4991.5,grid.442019.a,grid.1006.7]",1971,1970,13714,Brazil,,Porto Alegre,-30.037975311279297,-51.207469940185547,BR,
pub.1133359801,"Safety and efficacy of the ChAdOx1 nCoV-19 vaccine (AZD1222) against SARS-CoV-2: an interim analysis of four randomised controlled trials in Brazil, South Africa, and the UK",2020,2020-12-08,The Lancet,University of Cape Town,Elsevier,article,"[grid.7836.a,grid.415052.7,grid.8991.9,grid.418484.5,grid.9481.4,grid.411249.b,grid.411239.c,grid.10025.36,grid.477887.3,grid.11951.3d,grid.420004.2,grid.412563.7,grid.417815.e,grid.451056.3,grid.2515.3,grid.11956.3a,grid.511123.5,grid.31410.37,grid.500643.4,grid.264200.2,grid.11835.3e,grid.5491.9,grid.8532.c,grid.417068.c,grid.439475.8,grid.411233.6,grid.464526.7,grid.512085.b,grid.414449.8,grid.425213.3,grid.5337.2,grid.472984.4,grid.414171.6,grid.5335.0,grid.24029.3d,grid.8756.c,grid.412939.4,grid.430506.4,grid.4991.5,grid.442019.a,grid.1006.7]",1971,1970,13714,South Africa,,Rondebosch,-33.957500457763672,18.460556030273438,ZA,
pub.1133359801,"Safety and efficacy of the ChAdOx1 nCoV-19 vaccine (AZD1222) against SARS-CoV-2: an interim analysis of four randomised controlled trials in Brazil, South Africa, and the UK",2020,2020-12-08,The Lancet,University of the Witwatersrand,Elsevier,article,"[grid.7836.a,grid.415052.7,grid.8991.9,grid.418484.5,grid.9481.4,grid.411249.b,grid.411239.c,grid.10025.36,grid.477887.3,grid.11951.3d,grid.420004.2,grid.412563.7,grid.417815.e,grid.451056.3,grid.2515.3,grid.11956.3a,grid.511123.5,grid.31410.37,grid.500643.4,grid.264200.2,grid.11835.3e,grid.5491.9,grid.8532.c,grid.417068.c,grid.439475.8,grid.411233.6,grid.464526.7,grid.512085.b,grid.414449.8,grid.425213.3,grid.5337.2,grid.472984.4,grid.414171.6,grid.5335.0,grid.24029.3d,grid.8756.c,grid.412939.4,grid.430506.4,grid.4991.5,grid.442019.a,grid.1006.7]",1971,1970,13714,South Africa,,Johannesburg,-26.190832138061523,28.030277252197266,ZA,
pub.1133359801,"Safety and efficacy of the ChAdOx1 nCoV-19 vaccine (AZD1222) against SARS-CoV-2: an interim analysis of four randomised controlled trials in Brazil, South Africa, and the UK",2020,2020-12-08,The Lancet,Soweto CTC,Elsevier,article,"[grid.7836.a,grid.415052.7,grid.8991.9,grid.418484.5,grid.9481.4,grid.411249.b,grid.411239.c,grid.10025.36,grid.477887.3,grid.11951.3d,grid.420004.2,grid.412563.7,grid.417815.e,grid.451056.3,grid.2515.3,grid.11956.3a,grid.511123.5,grid.31410.37,grid.500643.4,grid.264200.2,grid.11835.3e,grid.5491.9,grid.8532.c,grid.417068.c,grid.439475.8,grid.411233.6,grid.464526.7,grid.512085.b,grid.414449.8,grid.425213.3,grid.5337.2,grid.472984.4,grid.414171.6,grid.5335.0,grid.24029.3d,grid.8756.c,grid.412939.4,grid.430506.4,grid.4991.5,grid.442019.a,grid.1006.7]",1971,1970,13714,South Africa,,Soweto,-26.267045974731445,27.877719879150391,ZA,
pub.1133359801,"Safety and efficacy of the ChAdOx1 nCoV-19 vaccine (AZD1222) against SARS-CoV-2: an interim analysis of four randomised controlled trials in Brazil, South Africa, and the UK",2020,2020-12-08,The Lancet,AstraZeneca (United Kingdom),Elsevier,article,"[grid.7836.a,grid.415052.7,grid.8991.9,grid.418484.5,grid.9481.4,grid.411249.b,grid.411239.c,grid.10025.36,grid.477887.3,grid.11951.3d,grid.420004.2,grid.412563.7,grid.417815.e,grid.451056.3,grid.2515.3,grid.11956.3a,grid.511123.5,grid.31410.37,grid.500643.4,grid.264200.2,grid.11835.3e,grid.5491.9,grid.8532.c,grid.417068.c,grid.439475.8,grid.411233.6,grid.464526.7,grid.512085.b,grid.414449.8,grid.425213.3,grid.5337.2,grid.472984.4,grid.414171.6,grid.5335.0,grid.24029.3d,grid.8756.c,grid.412939.4,grid.430506.4,grid.4991.5,grid.442019.a,grid.1006.7]",1971,1970,13714,United Kingdom,,Cambridge,51.519588470458984,-0.18164600431919098,GB,
pub.1133359801,"Safety and efficacy of the ChAdOx1 nCoV-19 vaccine (AZD1222) against SARS-CoV-2: an interim analysis of four randomised controlled trials in Brazil, South Africa, and the UK",2020,2020-12-08,The Lancet,St Thomas' Hospital,Elsevier,article,"[grid.7836.a,grid.415052.7,grid.8991.9,grid.418484.5,grid.9481.4,grid.411249.b,grid.411239.c,grid.10025.36,grid.477887.3,grid.11951.3d,grid.420004.2,grid.412563.7,grid.417815.e,grid.451056.3,grid.2515.3,grid.11956.3a,grid.511123.5,grid.31410.37,grid.500643.4,grid.264200.2,grid.11835.3e,grid.5491.9,grid.8532.c,grid.417068.c,grid.439475.8,grid.411233.6,grid.464526.7,grid.512085.b,grid.414449.8,grid.425213.3,grid.5337.2,grid.472984.4,grid.414171.6,grid.5335.0,grid.24029.3d,grid.8756.c,grid.412939.4,grid.430506.4,grid.4991.5,grid.442019.a,grid.1006.7]",1971,1970,13714,United Kingdom,,London,51.498817443847656,-0.11910080909729004,GB,
pub.1133359801,"Safety and efficacy of the ChAdOx1 nCoV-19 vaccine (AZD1222) against SARS-CoV-2: an interim analysis of four randomised controlled trials in Brazil, South Africa, and the UK",2020,2020-12-08,The Lancet,North Bristol NHS Trust,Elsevier,article,"[grid.7836.a,grid.415052.7,grid.8991.9,grid.418484.5,grid.9481.4,grid.411249.b,grid.411239.c,grid.10025.36,grid.477887.3,grid.11951.3d,grid.420004.2,grid.412563.7,grid.417815.e,grid.451056.3,grid.2515.3,grid.11956.3a,grid.511123.5,grid.31410.37,grid.500643.4,grid.264200.2,grid.11835.3e,grid.5491.9,grid.8532.c,grid.417068.c,grid.439475.8,grid.411233.6,grid.464526.7,grid.512085.b,grid.414449.8,grid.425213.3,grid.5337.2,grid.472984.4,grid.414171.6,grid.5335.0,grid.24029.3d,grid.8756.c,grid.412939.4,grid.430506.4,grid.4991.5,grid.442019.a,grid.1006.7]",1971,1970,13714,United Kingdom,,Bristol,51.498706817626953,-2.5943069458007812,GB,
pub.1133359801,"Safety and efficacy of the ChAdOx1 nCoV-19 vaccine (AZD1222) against SARS-CoV-2: an interim analysis of four randomised controlled trials in Brazil, South Africa, and the UK",2020,2020-12-08,The Lancet,Newcastle University,Elsevier,article,"[grid.7836.a,grid.415052.7,grid.8991.9,grid.418484.5,grid.9481.4,grid.411249.b,grid.411239.c,grid.10025.36,grid.477887.3,grid.11951.3d,grid.420004.2,grid.412563.7,grid.417815.e,grid.451056.3,grid.2515.3,grid.11956.3a,grid.511123.5,grid.31410.37,grid.500643.4,grid.264200.2,grid.11835.3e,grid.5491.9,grid.8532.c,grid.417068.c,grid.439475.8,grid.411233.6,grid.464526.7,grid.512085.b,grid.414449.8,grid.425213.3,grid.5337.2,grid.472984.4,grid.414171.6,grid.5335.0,grid.24029.3d,grid.8756.c,grid.412939.4,grid.430506.4,grid.4991.5,grid.442019.a,grid.1006.7]",1971,1970,13714,United Kingdom,,Newcastle upon Tyne,54.978000640869141,-1.6150000095367432,GB,
pub.1133359801,"Safety and efficacy of the ChAdOx1 nCoV-19 vaccine (AZD1222) against SARS-CoV-2: an interim analysis of four randomised controlled trials in Brazil, South Africa, and the UK",2020,2020-12-08,The Lancet,University of Bristol,Elsevier,article,"[grid.7836.a,grid.415052.7,grid.8991.9,grid.418484.5,grid.9481.4,grid.411249.b,grid.411239.c,grid.10025.36,grid.477887.3,grid.11951.3d,grid.420004.2,grid.412563.7,grid.417815.e,grid.451056.3,grid.2515.3,grid.11956.3a,grid.511123.5,grid.31410.37,grid.500643.4,grid.264200.2,grid.11835.3e,grid.5491.9,grid.8532.c,grid.417068.c,grid.439475.8,grid.411233.6,grid.464526.7,grid.512085.b,grid.414449.8,grid.425213.3,grid.5337.2,grid.472984.4,grid.414171.6,grid.5335.0,grid.24029.3d,grid.8756.c,grid.412939.4,grid.430506.4,grid.4991.5,grid.442019.a,grid.1006.7]",1971,1970,13714,United Kingdom,,Bristol,51.456390380859375,-2.6044440269470215,GB,
pub.1133359801,"Safety and efficacy of the ChAdOx1 nCoV-19 vaccine (AZD1222) against SARS-CoV-2: an interim analysis of four randomised controlled trials in Brazil, South Africa, and the UK",2020,2020-12-08,The Lancet,National Institute for Health Research,Elsevier,article,"[grid.7836.a,grid.415052.7,grid.8991.9,grid.418484.5,grid.9481.4,grid.411249.b,grid.411239.c,grid.10025.36,grid.477887.3,grid.11951.3d,grid.420004.2,grid.412563.7,grid.417815.e,grid.451056.3,grid.2515.3,grid.11956.3a,grid.511123.5,grid.31410.37,grid.500643.4,grid.264200.2,grid.11835.3e,grid.5491.9,grid.8532.c,grid.417068.c,grid.439475.8,grid.411233.6,grid.464526.7,grid.512085.b,grid.414449.8,grid.425213.3,grid.5337.2,grid.472984.4,grid.414171.6,grid.5335.0,grid.24029.3d,grid.8756.c,grid.412939.4,grid.430506.4,grid.4991.5,grid.442019.a,grid.1006.7]",1971,1970,13714,United Kingdom,,London,51.502704620361328,-0.12534999847412109,GB,
pub.1133359801,"Safety and efficacy of the ChAdOx1 nCoV-19 vaccine (AZD1222) against SARS-CoV-2: an interim analysis of four randomised controlled trials in Brazil, South Africa, and the UK",2020,2020-12-08,The Lancet,Federal University of Rio Grande do Norte,Elsevier,article,"[grid.7836.a,grid.415052.7,grid.8991.9,grid.418484.5,grid.9481.4,grid.411249.b,grid.411239.c,grid.10025.36,grid.477887.3,grid.11951.3d,grid.420004.2,grid.412563.7,grid.417815.e,grid.451056.3,grid.2515.3,grid.11956.3a,grid.511123.5,grid.31410.37,grid.500643.4,grid.264200.2,grid.11835.3e,grid.5491.9,grid.8532.c,grid.417068.c,grid.439475.8,grid.411233.6,grid.464526.7,grid.512085.b,grid.414449.8,grid.425213.3,grid.5337.2,grid.472984.4,grid.414171.6,grid.5335.0,grid.24029.3d,grid.8756.c,grid.412939.4,grid.430506.4,grid.4991.5,grid.442019.a,grid.1006.7]",1971,1970,13714,Brazil,,Natal,-5.8393106460571289,-35.2001953125,BR,
pub.1133359801,"Safety and efficacy of the ChAdOx1 nCoV-19 vaccine (AZD1222) against SARS-CoV-2: an interim analysis of four randomised controlled trials in Brazil, South Africa, and the UK",2020,2020-12-08,The Lancet,Western General Hospital,Elsevier,article,"[grid.7836.a,grid.415052.7,grid.8991.9,grid.418484.5,grid.9481.4,grid.411249.b,grid.411239.c,grid.10025.36,grid.477887.3,grid.11951.3d,grid.420004.2,grid.412563.7,grid.417815.e,grid.451056.3,grid.2515.3,grid.11956.3a,grid.511123.5,grid.31410.37,grid.500643.4,grid.264200.2,grid.11835.3e,grid.5491.9,grid.8532.c,grid.417068.c,grid.439475.8,grid.411233.6,grid.464526.7,grid.512085.b,grid.414449.8,grid.425213.3,grid.5337.2,grid.472984.4,grid.414171.6,grid.5335.0,grid.24029.3d,grid.8756.c,grid.412939.4,grid.430506.4,grid.4991.5,grid.442019.a,grid.1006.7]",1971,1970,13714,United Kingdom,Scotland,Edinburgh,55.963272094726562,-3.2327098846435547,GB,GB-SCT
pub.1133359801,"Safety and efficacy of the ChAdOx1 nCoV-19 vaccine (AZD1222) against SARS-CoV-2: an interim analysis of four randomised controlled trials in Brazil, South Africa, and the UK",2020,2020-12-08,The Lancet,Universidade Unigranrio,Elsevier,article,"[grid.7836.a,grid.415052.7,grid.8991.9,grid.418484.5,grid.9481.4,grid.411249.b,grid.411239.c,grid.10025.36,grid.477887.3,grid.11951.3d,grid.420004.2,grid.412563.7,grid.417815.e,grid.451056.3,grid.2515.3,grid.11956.3a,grid.511123.5,grid.31410.37,grid.500643.4,grid.264200.2,grid.11835.3e,grid.5491.9,grid.8532.c,grid.417068.c,grid.439475.8,grid.411233.6,grid.464526.7,grid.512085.b,grid.414449.8,grid.425213.3,grid.5337.2,grid.472984.4,grid.414171.6,grid.5335.0,grid.24029.3d,grid.8756.c,grid.412939.4,grid.430506.4,grid.4991.5,grid.442019.a,grid.1006.7]",1971,1970,13714,Brazil,,Rio de Janeiro,-22.981395721435547,-43.367530822753906,BR,
pub.1133359801,"Safety and efficacy of the ChAdOx1 nCoV-19 vaccine (AZD1222) against SARS-CoV-2: an interim analysis of four randomised controlled trials in Brazil, South Africa, and the UK",2020,2020-12-08,The Lancet,D’Or Institute for Research and Education,Elsevier,article,"[grid.7836.a,grid.415052.7,grid.8991.9,grid.418484.5,grid.9481.4,grid.411249.b,grid.411239.c,grid.10025.36,grid.477887.3,grid.11951.3d,grid.420004.2,grid.412563.7,grid.417815.e,grid.451056.3,grid.2515.3,grid.11956.3a,grid.511123.5,grid.31410.37,grid.500643.4,grid.264200.2,grid.11835.3e,grid.5491.9,grid.8532.c,grid.417068.c,grid.439475.8,grid.411233.6,grid.464526.7,grid.512085.b,grid.414449.8,grid.425213.3,grid.5337.2,grid.472984.4,grid.414171.6,grid.5335.0,grid.24029.3d,grid.8756.c,grid.412939.4,grid.430506.4,grid.4991.5,grid.442019.a,grid.1006.7]",1971,1970,13714,Brazil,,Rio de Janeiro,-22.958524703979492,-43.192276000976562,BR,
pub.1133359801,"Safety and efficacy of the ChAdOx1 nCoV-19 vaccine (AZD1222) against SARS-CoV-2: an interim analysis of four randomised controlled trials in Brazil, South Africa, and the UK",2020,2020-12-08,The Lancet,Universidade Federal de Santa Maria,Elsevier,article,"[grid.7836.a,grid.415052.7,grid.8991.9,grid.418484.5,grid.9481.4,grid.411249.b,grid.411239.c,grid.10025.36,grid.477887.3,grid.11951.3d,grid.420004.2,grid.412563.7,grid.417815.e,grid.451056.3,grid.2515.3,grid.11956.3a,grid.511123.5,grid.31410.37,grid.500643.4,grid.264200.2,grid.11835.3e,grid.5491.9,grid.8532.c,grid.417068.c,grid.439475.8,grid.411233.6,grid.464526.7,grid.512085.b,grid.414449.8,grid.425213.3,grid.5337.2,grid.472984.4,grid.414171.6,grid.5335.0,grid.24029.3d,grid.8756.c,grid.412939.4,grid.430506.4,grid.4991.5,grid.442019.a,grid.1006.7]",1971,1970,13714,Brazil,,Santa Maria,-29.71351432800293,-53.716171264648438,BR,
pub.1133359801,"Safety and efficacy of the ChAdOx1 nCoV-19 vaccine (AZD1222) against SARS-CoV-2: an interim analysis of four randomised controlled trials in Brazil, South Africa, and the UK",2020,2020-12-08,The Lancet,University Hospital Southampton NHS Foundation Trust,Elsevier,article,"[grid.7836.a,grid.415052.7,grid.8991.9,grid.418484.5,grid.9481.4,grid.411249.b,grid.411239.c,grid.10025.36,grid.477887.3,grid.11951.3d,grid.420004.2,grid.412563.7,grid.417815.e,grid.451056.3,grid.2515.3,grid.11956.3a,grid.511123.5,grid.31410.37,grid.500643.4,grid.264200.2,grid.11835.3e,grid.5491.9,grid.8532.c,grid.417068.c,grid.439475.8,grid.411233.6,grid.464526.7,grid.512085.b,grid.414449.8,grid.425213.3,grid.5337.2,grid.472984.4,grid.414171.6,grid.5335.0,grid.24029.3d,grid.8756.c,grid.412939.4,grid.430506.4,grid.4991.5,grid.442019.a,grid.1006.7]",1971,1970,13714,United Kingdom,,Southampton,50.934852600097656,-1.4339799880981445,GB,
pub.1133359801,"Safety and efficacy of the ChAdOx1 nCoV-19 vaccine (AZD1222) against SARS-CoV-2: an interim analysis of four randomised controlled trials in Brazil, South Africa, and the UK",2020,2020-12-08,The Lancet,University of Glasgow,Elsevier,article,"[grid.7836.a,grid.415052.7,grid.8991.9,grid.418484.5,grid.9481.4,grid.411249.b,grid.411239.c,grid.10025.36,grid.477887.3,grid.11951.3d,grid.420004.2,grid.412563.7,grid.417815.e,grid.451056.3,grid.2515.3,grid.11956.3a,grid.511123.5,grid.31410.37,grid.500643.4,grid.264200.2,grid.11835.3e,grid.5491.9,grid.8532.c,grid.417068.c,grid.439475.8,grid.411233.6,grid.464526.7,grid.512085.b,grid.414449.8,grid.425213.3,grid.5337.2,grid.472984.4,grid.414171.6,grid.5335.0,grid.24029.3d,grid.8756.c,grid.412939.4,grid.430506.4,grid.4991.5,grid.442019.a,grid.1006.7]",1971,1970,13714,United Kingdom,,Glasgow,55.872306823730469,-4.2882208824157715,GB,
pub.1133359801,"Safety and efficacy of the ChAdOx1 nCoV-19 vaccine (AZD1222) against SARS-CoV-2: an interim analysis of four randomised controlled trials in Brazil, South Africa, and the UK",2020,2020-12-08,The Lancet,Papworth Hospital NHS Foundation Trust,Elsevier,article,"[grid.7836.a,grid.415052.7,grid.8991.9,grid.418484.5,grid.9481.4,grid.411249.b,grid.411239.c,grid.10025.36,grid.477887.3,grid.11951.3d,grid.420004.2,grid.412563.7,grid.417815.e,grid.451056.3,grid.2515.3,grid.11956.3a,grid.511123.5,grid.31410.37,grid.500643.4,grid.264200.2,grid.11835.3e,grid.5491.9,grid.8532.c,grid.417068.c,grid.439475.8,grid.411233.6,grid.464526.7,grid.512085.b,grid.414449.8,grid.425213.3,grid.5337.2,grid.472984.4,grid.414171.6,grid.5335.0,grid.24029.3d,grid.8756.c,grid.412939.4,grid.430506.4,grid.4991.5,grid.442019.a,grid.1006.7]",1971,1970,13714,United Kingdom,,Cambridge,52.2480583190918,-0.11077000200748444,GB,
pub.1133359801,"Safety and efficacy of the ChAdOx1 nCoV-19 vaccine (AZD1222) against SARS-CoV-2: an interim analysis of four randomised controlled trials in Brazil, South Africa, and the UK",2020,2020-12-08,The Lancet,Federal University of São Paulo,Elsevier,article,"[grid.7836.a,grid.415052.7,grid.8991.9,grid.418484.5,grid.9481.4,grid.411249.b,grid.411239.c,grid.10025.36,grid.477887.3,grid.11951.3d,grid.420004.2,grid.412563.7,grid.417815.e,grid.451056.3,grid.2515.3,grid.11956.3a,grid.511123.5,grid.31410.37,grid.500643.4,grid.264200.2,grid.11835.3e,grid.5491.9,grid.8532.c,grid.417068.c,grid.439475.8,grid.411233.6,grid.464526.7,grid.512085.b,grid.414449.8,grid.425213.3,grid.5337.2,grid.472984.4,grid.414171.6,grid.5335.0,grid.24029.3d,grid.8756.c,grid.412939.4,grid.430506.4,grid.4991.5,grid.442019.a,grid.1006.7]",1971,1970,13714,Brazil,,São Paulo,-23.591619491577148,-46.649024963378906,BR,
pub.1133359801,"Safety and efficacy of the ChAdOx1 nCoV-19 vaccine (AZD1222) against SARS-CoV-2: an interim analysis of four randomised controlled trials in Brazil, South Africa, and the UK",2020,2020-12-08,The Lancet,Public Health Wales,Elsevier,article,"[grid.7836.a,grid.415052.7,grid.8991.9,grid.418484.5,grid.9481.4,grid.411249.b,grid.411239.c,grid.10025.36,grid.477887.3,grid.11951.3d,grid.420004.2,grid.412563.7,grid.417815.e,grid.451056.3,grid.2515.3,grid.11956.3a,grid.511123.5,grid.31410.37,grid.500643.4,grid.264200.2,grid.11835.3e,grid.5491.9,grid.8532.c,grid.417068.c,grid.439475.8,grid.411233.6,grid.464526.7,grid.512085.b,grid.414449.8,grid.425213.3,grid.5337.2,grid.472984.4,grid.414171.6,grid.5335.0,grid.24029.3d,grid.8756.c,grid.412939.4,grid.430506.4,grid.4991.5,grid.442019.a,grid.1006.7]",1971,1970,13714,United Kingdom,,Cardiff,51.476806640625,-3.1695449352264404,GB,
pub.1133359801,"Safety and efficacy of the ChAdOx1 nCoV-19 vaccine (AZD1222) against SARS-CoV-2: an interim analysis of four randomised controlled trials in Brazil, South Africa, and the UK",2020,2020-12-08,The Lancet,Sheffield Teaching Hospitals NHS Foundation Trust,Elsevier,article,"[grid.7836.a,grid.415052.7,grid.8991.9,grid.418484.5,grid.9481.4,grid.411249.b,grid.411239.c,grid.10025.36,grid.477887.3,grid.11951.3d,grid.420004.2,grid.412563.7,grid.417815.e,grid.451056.3,grid.2515.3,grid.11956.3a,grid.511123.5,grid.31410.37,grid.500643.4,grid.264200.2,grid.11835.3e,grid.5491.9,grid.8532.c,grid.417068.c,grid.439475.8,grid.411233.6,grid.464526.7,grid.512085.b,grid.414449.8,grid.425213.3,grid.5337.2,grid.472984.4,grid.414171.6,grid.5335.0,grid.24029.3d,grid.8756.c,grid.412939.4,grid.430506.4,grid.4991.5,grid.442019.a,grid.1006.7]",1971,1970,13714,United Kingdom,,Sheffield,53.376457214355469,-1.4888850450515747,GB,
pub.1133359801,"Safety and efficacy of the ChAdOx1 nCoV-19 vaccine (AZD1222) against SARS-CoV-2: an interim analysis of four randomised controlled trials in Brazil, South Africa, and the UK",2020,2020-12-08,The Lancet,Cambridge University Hospitals NHS Foundation Trust,Elsevier,article,"[grid.7836.a,grid.415052.7,grid.8991.9,grid.418484.5,grid.9481.4,grid.411249.b,grid.411239.c,grid.10025.36,grid.477887.3,grid.11951.3d,grid.420004.2,grid.412563.7,grid.417815.e,grid.451056.3,grid.2515.3,grid.11956.3a,grid.511123.5,grid.31410.37,grid.500643.4,grid.264200.2,grid.11835.3e,grid.5491.9,grid.8532.c,grid.417068.c,grid.439475.8,grid.411233.6,grid.464526.7,grid.512085.b,grid.414449.8,grid.425213.3,grid.5337.2,grid.472984.4,grid.414171.6,grid.5335.0,grid.24029.3d,grid.8756.c,grid.412939.4,grid.430506.4,grid.4991.5,grid.442019.a,grid.1006.7]",1971,1970,13714,United Kingdom,,Cambridge,52.174381256103516,0.141292005777359,GB,
pub.1133359801,"Safety and efficacy of the ChAdOx1 nCoV-19 vaccine (AZD1222) against SARS-CoV-2: an interim analysis of four randomised controlled trials in Brazil, South Africa, and the UK",2020,2020-12-08,The Lancet,Federal University of Rio Grande do Sul,Elsevier,article,"[grid.7836.a,grid.415052.7,grid.8991.9,grid.418484.5,grid.9481.4,grid.411249.b,grid.411239.c,grid.10025.36,grid.477887.3,grid.11951.3d,grid.420004.2,grid.412563.7,grid.417815.e,grid.451056.3,grid.2515.3,grid.11956.3a,grid.511123.5,grid.31410.37,grid.500643.4,grid.264200.2,grid.11835.3e,grid.5491.9,grid.8532.c,grid.417068.c,grid.439475.8,grid.411233.6,grid.464526.7,grid.512085.b,grid.414449.8,grid.425213.3,grid.5337.2,grid.472984.4,grid.414171.6,grid.5335.0,grid.24029.3d,grid.8756.c,grid.412939.4,grid.430506.4,grid.4991.5,grid.442019.a,grid.1006.7]",1971,1970,13714,Brazil,Rio Grande do Sul,Porto Alegre,-30.032438278198242,-51.219314575195312,BR,BR-RS
pub.1133359801,"Safety and efficacy of the ChAdOx1 nCoV-19 vaccine (AZD1222) against SARS-CoV-2: an interim analysis of four randomised controlled trials in Brazil, South Africa, and the UK",2020,2020-12-08,The Lancet,Escola Bahiana de Medicina e Saúde Pública,Elsevier,article,"[grid.7836.a,grid.415052.7,grid.8991.9,grid.418484.5,grid.9481.4,grid.411249.b,grid.411239.c,grid.10025.36,grid.477887.3,grid.11951.3d,grid.420004.2,grid.412563.7,grid.417815.e,grid.451056.3,grid.2515.3,grid.11956.3a,grid.511123.5,grid.31410.37,grid.500643.4,grid.264200.2,grid.11835.3e,grid.5491.9,grid.8532.c,grid.417068.c,grid.439475.8,grid.411233.6,grid.464526.7,grid.512085.b,grid.414449.8,grid.425213.3,grid.5337.2,grid.472984.4,grid.414171.6,grid.5335.0,grid.24029.3d,grid.8756.c,grid.412939.4,grid.430506.4,grid.4991.5,grid.442019.a,grid.1006.7]",1971,1970,13714,Brazil,,Salvador,-12.958910942077637,-38.452560424804688,BR,
pub.1133359801,"Safety and efficacy of the ChAdOx1 nCoV-19 vaccine (AZD1222) against SARS-CoV-2: an interim analysis of four randomised controlled trials in Brazil, South Africa, and the UK",2020,2020-12-08,The Lancet,NIHR Imperial Biomedical Research Centre,Elsevier,article,"[grid.7836.a,grid.415052.7,grid.8991.9,grid.418484.5,grid.9481.4,grid.411249.b,grid.411239.c,grid.10025.36,grid.477887.3,grid.11951.3d,grid.420004.2,grid.412563.7,grid.417815.e,grid.451056.3,grid.2515.3,grid.11956.3a,grid.511123.5,grid.31410.37,grid.500643.4,grid.264200.2,grid.11835.3e,grid.5491.9,grid.8532.c,grid.417068.c,grid.439475.8,grid.411233.6,grid.464526.7,grid.512085.b,grid.414449.8,grid.425213.3,grid.5337.2,grid.472984.4,grid.414171.6,grid.5335.0,grid.24029.3d,grid.8756.c,grid.412939.4,grid.430506.4,grid.4991.5,grid.442019.a,grid.1006.7]",1971,1970,13714,United Kingdom,,London,51.518100738525391,-0.17687800526618958,GB,
pub.1133359801,"Safety and efficacy of the ChAdOx1 nCoV-19 vaccine (AZD1222) against SARS-CoV-2: an interim analysis of four randomised controlled trials in Brazil, South Africa, and the UK",2020,2020-12-08,The Lancet,Setshaba Research Centre,Elsevier,article,"[grid.7836.a,grid.415052.7,grid.8991.9,grid.418484.5,grid.9481.4,grid.411249.b,grid.411239.c,grid.10025.36,grid.477887.3,grid.11951.3d,grid.420004.2,grid.412563.7,grid.417815.e,grid.451056.3,grid.2515.3,grid.11956.3a,grid.511123.5,grid.31410.37,grid.500643.4,grid.264200.2,grid.11835.3e,grid.5491.9,grid.8532.c,grid.417068.c,grid.439475.8,grid.411233.6,grid.464526.7,grid.512085.b,grid.414449.8,grid.425213.3,grid.5337.2,grid.472984.4,grid.414171.6,grid.5335.0,grid.24029.3d,grid.8756.c,grid.412939.4,grid.430506.4,grid.4991.5,grid.442019.a,grid.1006.7]",1971,1970,13714,South Africa,,Pretoria,-25.526166915893555,28.10847282409668,ZA,
pub.1133359801,"Safety and efficacy of the ChAdOx1 nCoV-19 vaccine (AZD1222) against SARS-CoV-2: an interim analysis of four randomised controlled trials in Brazil, South Africa, and the UK",2020,2020-12-08,The Lancet,University of Oxford,Elsevier,article,"[grid.7836.a,grid.415052.7,grid.8991.9,grid.418484.5,grid.9481.4,grid.411249.b,grid.411239.c,grid.10025.36,grid.477887.3,grid.11951.3d,grid.420004.2,grid.412563.7,grid.417815.e,grid.451056.3,grid.2515.3,grid.11956.3a,grid.511123.5,grid.31410.37,grid.500643.4,grid.264200.2,grid.11835.3e,grid.5491.9,grid.8532.c,grid.417068.c,grid.439475.8,grid.411233.6,grid.464526.7,grid.512085.b,grid.414449.8,grid.425213.3,grid.5337.2,grid.472984.4,grid.414171.6,grid.5335.0,grid.24029.3d,grid.8756.c,grid.412939.4,grid.430506.4,grid.4991.5,grid.442019.a,grid.1006.7]",1971,1970,13714,United Kingdom,Oxfordshire,Oxford,51.753437042236328,-1.25400972366333,GB,GB-OXF
pub.1133359801,"Safety and efficacy of the ChAdOx1 nCoV-19 vaccine (AZD1222) against SARS-CoV-2: an interim analysis of four randomised controlled trials in Brazil, South Africa, and the UK",2020,2020-12-08,The Lancet,London School of Hygiene & Tropical Medicine,Elsevier,article,"[grid.7836.a,grid.415052.7,grid.8991.9,grid.418484.5,grid.9481.4,grid.411249.b,grid.411239.c,grid.10025.36,grid.477887.3,grid.11951.3d,grid.420004.2,grid.412563.7,grid.417815.e,grid.451056.3,grid.2515.3,grid.11956.3a,grid.511123.5,grid.31410.37,grid.500643.4,grid.264200.2,grid.11835.3e,grid.5491.9,grid.8532.c,grid.417068.c,grid.439475.8,grid.411233.6,grid.464526.7,grid.512085.b,grid.414449.8,grid.425213.3,grid.5337.2,grid.472984.4,grid.414171.6,grid.5335.0,grid.24029.3d,grid.8756.c,grid.412939.4,grid.430506.4,grid.4991.5,grid.442019.a,grid.1006.7]",1971,1970,13714,United Kingdom,Camden,London,51.520900726318359,-0.1307000070810318,GB,GB-CMD
pub.1133359801,"Safety and efficacy of the ChAdOx1 nCoV-19 vaccine (AZD1222) against SARS-CoV-2: an interim analysis of four randomised controlled trials in Brazil, South Africa, and the UK",2020,2020-12-08,The Lancet,University of Cambridge,Elsevier,article,"[grid.7836.a,grid.415052.7,grid.8991.9,grid.418484.5,grid.9481.4,grid.411249.b,grid.411239.c,grid.10025.36,grid.477887.3,grid.11951.3d,grid.420004.2,grid.412563.7,grid.417815.e,grid.451056.3,grid.2515.3,grid.11956.3a,grid.511123.5,grid.31410.37,grid.500643.4,grid.264200.2,grid.11835.3e,grid.5491.9,grid.8532.c,grid.417068.c,grid.439475.8,grid.411233.6,grid.464526.7,grid.512085.b,grid.414449.8,grid.425213.3,grid.5337.2,grid.472984.4,grid.414171.6,grid.5335.0,grid.24029.3d,grid.8756.c,grid.412939.4,grid.430506.4,grid.4991.5,grid.442019.a,grid.1006.7]",1971,1970,13714,United Kingdom,,Cambridge,52.204452514648438,0.11490800231695175,GB,
pub.1133359801,"Safety and efficacy of the ChAdOx1 nCoV-19 vaccine (AZD1222) against SARS-CoV-2: an interim analysis of four randomised controlled trials in Brazil, South Africa, and the UK",2020,2020-12-08,The Lancet,University Hospitals Birmingham NHS Foundation Trust,Elsevier,article,"[grid.7836.a,grid.415052.7,grid.8991.9,grid.418484.5,grid.9481.4,grid.411249.b,grid.411239.c,grid.10025.36,grid.477887.3,grid.11951.3d,grid.420004.2,grid.412563.7,grid.417815.e,grid.451056.3,grid.2515.3,grid.11956.3a,grid.511123.5,grid.31410.37,grid.500643.4,grid.264200.2,grid.11835.3e,grid.5491.9,grid.8532.c,grid.417068.c,grid.439475.8,grid.411233.6,grid.464526.7,grid.512085.b,grid.414449.8,grid.425213.3,grid.5337.2,grid.472984.4,grid.414171.6,grid.5335.0,grid.24029.3d,grid.8756.c,grid.412939.4,grid.430506.4,grid.4991.5,grid.442019.a,grid.1006.7]",1971,1970,13714,United Kingdom,,Birmingham,52.451278686523438,-1.9413900375366211,GB,
pub.1133359801,"Safety and efficacy of the ChAdOx1 nCoV-19 vaccine (AZD1222) against SARS-CoV-2: an interim analysis of four randomised controlled trials in Brazil, South Africa, and the UK",2020,2020-12-08,The Lancet,University of Sheffield,Elsevier,article,"[grid.7836.a,grid.415052.7,grid.8991.9,grid.418484.5,grid.9481.4,grid.411249.b,grid.411239.c,grid.10025.36,grid.477887.3,grid.11951.3d,grid.420004.2,grid.412563.7,grid.417815.e,grid.451056.3,grid.2515.3,grid.11956.3a,grid.511123.5,grid.31410.37,grid.500643.4,grid.264200.2,grid.11835.3e,grid.5491.9,grid.8532.c,grid.417068.c,grid.439475.8,grid.411233.6,grid.464526.7,grid.512085.b,grid.414449.8,grid.425213.3,grid.5337.2,grid.472984.4,grid.414171.6,grid.5335.0,grid.24029.3d,grid.8756.c,grid.412939.4,grid.430506.4,grid.4991.5,grid.442019.a,grid.1006.7]",1971,1970,13714,United Kingdom,,Sheffield,53.381389617919922,-1.488271951675415,GB,
pub.1133359801,"Safety and efficacy of the ChAdOx1 nCoV-19 vaccine (AZD1222) against SARS-CoV-2: an interim analysis of four randomised controlled trials in Brazil, South Africa, and the UK",2020,2020-12-08,The Lancet,"St George's, University of London",Elsevier,article,"[grid.7836.a,grid.415052.7,grid.8991.9,grid.418484.5,grid.9481.4,grid.411249.b,grid.411239.c,grid.10025.36,grid.477887.3,grid.11951.3d,grid.420004.2,grid.412563.7,grid.417815.e,grid.451056.3,grid.2515.3,grid.11956.3a,grid.511123.5,grid.31410.37,grid.500643.4,grid.264200.2,grid.11835.3e,grid.5491.9,grid.8532.c,grid.417068.c,grid.439475.8,grid.411233.6,grid.464526.7,grid.512085.b,grid.414449.8,grid.425213.3,grid.5337.2,grid.472984.4,grid.414171.6,grid.5335.0,grid.24029.3d,grid.8756.c,grid.412939.4,grid.430506.4,grid.4991.5,grid.442019.a,grid.1006.7]",1971,1970,13714,United Kingdom,,London,51.427387237548828,-0.17451399564743042,GB,
pub.1133359801,"Safety and efficacy of the ChAdOx1 nCoV-19 vaccine (AZD1222) against SARS-CoV-2: an interim analysis of four randomised controlled trials in Brazil, South Africa, and the UK",2020,2020-12-08,The Lancet,Stellenbosch University,Elsevier,article,"[grid.7836.a,grid.415052.7,grid.8991.9,grid.418484.5,grid.9481.4,grid.411249.b,grid.411239.c,grid.10025.36,grid.477887.3,grid.11951.3d,grid.420004.2,grid.412563.7,grid.417815.e,grid.451056.3,grid.2515.3,grid.11956.3a,grid.511123.5,grid.31410.37,grid.500643.4,grid.264200.2,grid.11835.3e,grid.5491.9,grid.8532.c,grid.417068.c,grid.439475.8,grid.411233.6,grid.464526.7,grid.512085.b,grid.414449.8,grid.425213.3,grid.5337.2,grid.472984.4,grid.414171.6,grid.5335.0,grid.24029.3d,grid.8756.c,grid.412939.4,grid.430506.4,grid.4991.5,grid.442019.a,grid.1006.7]",1971,1970,13714,South Africa,Western Cape,Stellenbosch,-33.933162689208984,18.862043380737305,ZA,ZA-WC
pub.1133359801,"Safety and efficacy of the ChAdOx1 nCoV-19 vaccine (AZD1222) against SARS-CoV-2: an interim analysis of four randomised controlled trials in Brazil, South Africa, and the UK",2020,2020-12-08,The Lancet,Queen Elizabeth University Hospital,Elsevier,article,"[grid.7836.a,grid.415052.7,grid.8991.9,grid.418484.5,grid.9481.4,grid.411249.b,grid.411239.c,grid.10025.36,grid.477887.3,grid.11951.3d,grid.420004.2,grid.412563.7,grid.417815.e,grid.451056.3,grid.2515.3,grid.11956.3a,grid.511123.5,grid.31410.37,grid.500643.4,grid.264200.2,grid.11835.3e,grid.5491.9,grid.8532.c,grid.417068.c,grid.439475.8,grid.411233.6,grid.464526.7,grid.512085.b,grid.414449.8,grid.425213.3,grid.5337.2,grid.472984.4,grid.414171.6,grid.5335.0,grid.24029.3d,grid.8756.c,grid.412939.4,grid.430506.4,grid.4991.5,grid.442019.a,grid.1006.7]",1971,1970,13714,United Kingdom,,Glasgow,55.862220764160156,-4.3411111831665039,GB,
pub.1133359801,"Safety and efficacy of the ChAdOx1 nCoV-19 vaccine (AZD1222) against SARS-CoV-2: an interim analysis of four randomised controlled trials in Brazil, South Africa, and the UK",2020,2020-12-08,The Lancet,University of Liverpool,Elsevier,article,"[grid.7836.a,grid.415052.7,grid.8991.9,grid.418484.5,grid.9481.4,grid.411249.b,grid.411239.c,grid.10025.36,grid.477887.3,grid.11951.3d,grid.420004.2,grid.412563.7,grid.417815.e,grid.451056.3,grid.2515.3,grid.11956.3a,grid.511123.5,grid.31410.37,grid.500643.4,grid.264200.2,grid.11835.3e,grid.5491.9,grid.8532.c,grid.417068.c,grid.439475.8,grid.411233.6,grid.464526.7,grid.512085.b,grid.414449.8,grid.425213.3,grid.5337.2,grid.472984.4,grid.414171.6,grid.5335.0,grid.24029.3d,grid.8756.c,grid.412939.4,grid.430506.4,grid.4991.5,grid.442019.a,grid.1006.7]",1971,1970,13714,United Kingdom,,Liverpool,53.4061164855957,-2.9656040668487549,GB,
pub.1133359801,"Safety and efficacy of the ChAdOx1 nCoV-19 vaccine (AZD1222) against SARS-CoV-2: an interim analysis of four randomised controlled trials in Brazil, South Africa, and the UK",2020,2020-12-08,The Lancet,Boston Children's Hospital,Elsevier,article,"[grid.7836.a,grid.415052.7,grid.8991.9,grid.418484.5,grid.9481.4,grid.411249.b,grid.411239.c,grid.10025.36,grid.477887.3,grid.11951.3d,grid.420004.2,grid.412563.7,grid.417815.e,grid.451056.3,grid.2515.3,grid.11956.3a,grid.511123.5,grid.31410.37,grid.500643.4,grid.264200.2,grid.11835.3e,grid.5491.9,grid.8532.c,grid.417068.c,grid.439475.8,grid.411233.6,grid.464526.7,grid.512085.b,grid.414449.8,grid.425213.3,grid.5337.2,grid.472984.4,grid.414171.6,grid.5335.0,grid.24029.3d,grid.8756.c,grid.412939.4,grid.430506.4,grid.4991.5,grid.442019.a,grid.1006.7]",1971,1970,13714,United States,Massachusetts,Boston,42.337539672851562,-71.105506896972656,US,US-MA
pub.1133359801,"Safety and efficacy of the ChAdOx1 nCoV-19 vaccine (AZD1222) against SARS-CoV-2: an interim analysis of four randomised controlled trials in Brazil, South Africa, and the UK",2020,2020-12-08,The Lancet,MRC Clinical Trials Unit,Elsevier,article,"[grid.7836.a,grid.415052.7,grid.8991.9,grid.418484.5,grid.9481.4,grid.411249.b,grid.411239.c,grid.10025.36,grid.477887.3,grid.11951.3d,grid.420004.2,grid.412563.7,grid.417815.e,grid.451056.3,grid.2515.3,grid.11956.3a,grid.511123.5,grid.31410.37,grid.500643.4,grid.264200.2,grid.11835.3e,grid.5491.9,grid.8532.c,grid.417068.c,grid.439475.8,grid.411233.6,grid.464526.7,grid.512085.b,grid.414449.8,grid.425213.3,grid.5337.2,grid.472984.4,grid.414171.6,grid.5335.0,grid.24029.3d,grid.8756.c,grid.412939.4,grid.430506.4,grid.4991.5,grid.442019.a,grid.1006.7]",1971,1970,13714,United Kingdom,,London,51.517406463623047,-0.12058199942111969,GB,
pub.1128556366,Clinical and immunological assessment of asymptomatic SARS-CoV-2 infections,2020,2020-06-18,Nature Medicine,Second Affiliated Hospital of Chongqing Medical University,Springer Nature,article,"[grid.452206.7,grid.203458.8,grid.412461.4]",1886,1886,13670,China,,Chongqing,29.559755325317383,106.57435607910156,CN,
pub.1128556366,Clinical and immunological assessment of asymptomatic SARS-CoV-2 infections,2020,2020-06-18,Nature Medicine,Chongqing Medical University,Springer Nature,article,"[grid.452206.7,grid.203458.8,grid.412461.4]",1886,1886,13670,China,,Chongqing,29.625120162963867,106.30549621582031,CN,
pub.1128556366,Clinical and immunological assessment of asymptomatic SARS-CoV-2 infections,2020,2020-06-18,Nature Medicine,First Affiliated Hospital of Chongqing Medical University,Springer Nature,article,"[grid.452206.7,grid.203458.8,grid.412461.4]",1886,1886,13670,China,,Chongqing,29.5306396484375,106.51178741455078,CN,
pub.1140976845,SARS-CoV-2 mRNA Vaccination-Associated Myocarditis in Children Ages 12-17: A Stratified National Database Analysis,2021,2021-09-08,medRxiv,"University of California, Davis",Cold Spring Harbor Laboratory,preprint,[grid.27860.3b],6,6,13667,United States,California,Davis,38.540000915527344,-121.75,US,US-CA
pub.1125943091,Treatment of 5 Critically Ill Patients With COVID-19 With Convalescent Plasma,2020,2020-04-28,JAMA,Shenzhen Third People’s Hospital,American Medical Association (AMA),article,"[grid.410741.7,grid.458513.e]",1659,1659,13615,China,,Shenzhen,22.639060974121094,114.12975311279297,CN,
pub.1125943091,Treatment of 5 Critically Ill Patients With COVID-19 With Convalescent Plasma,2020,2020-04-28,JAMA,Tianjin Institute of Industrial Biotechnology,American Medical Association (AMA),article,"[grid.410741.7,grid.458513.e]",1659,1659,13615,China,,Tianjin,39.140525817871094,117.40614318847656,CN,
pub.1139448905,Mass infection is not an option: we must do more to protect our young,2021,2021-07-07,The Lancet,London School of Hygiene & Tropical Medicine,Elsevier,article,"[grid.4991.5,grid.5335.0,grid.8991.9,grid.9909.9,grid.4868.2,grid.12082.39,grid.7340.0,grid.83440.3b,grid.11914.3c,grid.6572.6,grid.1012.2]",7,7,13581,United Kingdom,Camden,London,51.520900726318359,-0.1307000070810318,GB,GB-CMD
pub.1139448905,Mass infection is not an option: we must do more to protect our young,2021,2021-07-07,The Lancet,University of Western Australia,Elsevier,article,"[grid.4991.5,grid.5335.0,grid.8991.9,grid.9909.9,grid.4868.2,grid.12082.39,grid.7340.0,grid.83440.3b,grid.11914.3c,grid.6572.6,grid.1012.2]",7,7,13581,Australia,Western Australia,Perth,-31.980915069580078,115.81987762451172,AU,AU-WA
pub.1139448905,Mass infection is not an option: we must do more to protect our young,2021,2021-07-07,The Lancet,Queen Mary University of London,Elsevier,article,"[grid.4991.5,grid.5335.0,grid.8991.9,grid.9909.9,grid.4868.2,grid.12082.39,grid.7340.0,grid.83440.3b,grid.11914.3c,grid.6572.6,grid.1012.2]",7,7,13581,United Kingdom,,London,51.5242805480957,-0.040394999086856842,GB,
